ident,iata_code,type,name,iso_country,latitude_deg,longitude_deg,elevation_ft,runway_count,max_runway,avg_runway
5A8,WKK,medium_airport,Aleknagik / New Airport,US,59.2826004028,-158.617996216,66.0,1,2040.0,2040.0
AGGH,HIR,large_airport,Honiara International Airport,SB,-9.428,160.054993,28.0,1,7218.0,7218.0
AGGM,MUA,medium_airport,Munda Airport,SB,-8.32797,157.263,10.0,1,4593.0,4593.0
AHJ,AHJ,medium_airport,Hongyuan Airport,CN,32.53154,102.35224,11600.0,1,11811.0,11811.0
ANYN,INU,medium_airport,Nauru International Airport,NR,-0.547458,166.919006,22.0,1,7054.0,7054.0
AXF,AXF,medium_airport,Alxa Left Banner Bayanhot Airport,CN,38.74831,105.58858,4560.0,1,7874.0,7874.0
AYBK,BUA,medium_airport,Buka Airport,PG,-5.422319889068604,154.67300415039062,11.0,1,5125.0,5125.0
AYCH,CMU,medium_airport,Chimbu Airport,PG,-6.024290084838867,144.9709930419922,4974.0,1,3330.0,3330.0
AYDU,DAU,medium_airport,Daru Airport,PG,-9.08676,143.207993,20.0,1,4593.0,4593.0
AYGA,GKA,medium_airport,Goroka Airport,PG,-6.081689834590001,145.391998291,5282.0,2,5400.0,4691.5
AYGN,GUR,medium_airport,Gurney Airport,PG,-10.3114995956,150.333999634,88.0,1,5546.0,5546.0
AYGR,PNP,medium_airport,Girua Airport,PG,-8.80453968048,148.309005737,311.0,1,5485.0,5485.0
AYHK,HKN,medium_airport,Hoskins Airport,PG,-5.463846,150.407327,66.0,1,6644.0,6644.0
AYKM,KMA,medium_airport,Kerema Airport,PG,-7.96361017227,145.770996094,10.0,1,3044.0,3044.0
AYKV,KVG,medium_airport,Kavieng Airport,PG,-2.57940006256,150.807998657,7.0,1,5592.0,5592.0
AYMD,MAG,medium_airport,Madang Airport,PG,-5.20707988739,145.789001465,20.0,1,5174.0,5174.0
AYMH,HGU,medium_airport,Mount Hagen Kagamuga Airport,PG,-5.828212,144.299412,5388.0,2,7185.0,5392.0
AYMN,MDU,medium_airport,Mendi Airport,PG,-6.14774,143.656998,5680.0,1,4411.0,4411.0
AYMO,MAS,medium_airport,Momote Airport,PG,-2.06189,147.423996,12.0,1,6136.0,6136.0
AYNZ,LAE,medium_airport,Nadzab Airport,PG,-6.569803,146.725977,239.0,1,7999.0,7999.0
AYPY,POM,large_airport,Port Moresby Jacksons International Airport,PG,-9.44338035583496,147.22000122070312,146.0,2,9022.0,6823.5
AYTK,RAB,medium_airport,Tokua Airport,PG,-4.34046,152.380005,49.0,1,5643.0,5643.0
AYVN,VAI,medium_airport,Vanimo Airport,PG,-2.6926,141.3028,10.0,1,5775.0,5775.0
AYWD,WBM,medium_airport,Wapenamanda Airport,PG,-5.635293,143.892231,5889.0,1,5052.0,5052.0
AYWK,WWK,medium_airport,Wewak International Airport,PG,-3.58383011818,143.669006348,19.0,1,5234.0,5234.0
AZ-0011,FZL,medium_airport,Fuzuli International Airport,AZ,39.594578,47.196128,1247.0,1,9843.0,9843.0
BG-JAM,JAM,medium_airport,Bezmer Air Base,BG,42.4548988342,26.3521995544,509.0,1,8193.0,8193.0
BGAA,JEG,medium_airport,Aasiaat Airport,GL,68.721802,-52.784698,74.0,1,2621.0,2621.0
BGBW,UAK,medium_airport,Narsarsuaq Airport,GL,61.1605,-45.425999,112.0,1,6004.0,6004.0
BGGH,GOH,medium_airport,Nuuk Airport,GL,64.193022,-51.676512,283.0,2,3117.0,3023.5
BGKK,KUS,medium_airport,Kulusuk Airport,GL,65.573601,-37.1236,117.0,1,3934.0,3934.0
BGSF,SFJ,medium_airport,Kangerlussuaq Airport,GL,67.010446,-50.715294,165.0,1,9219.0,9219.0
BGSS,JHS,medium_airport,Sisimiut Airport,GL,66.951302,-53.729301,33.0,1,2621.0,2621.0
BGTL,THU,medium_airport,Thule Air Base,GL,76.531197,-68.703201,251.0,2,9997.0,9997.0
BIAR,AEY,medium_airport,Akureyri Airport,IS,65.66000366210938,-18.07270050048828,6.0,1,7874.0,7874.0
BIEG,EGS,medium_airport,Egilsstaðir Airport,IS,65.2833023071289,-14.401399612426758,76.0,1,6562.0,6562.0
BIHN,HFN,medium_airport,Hornafjörður Airport,IS,64.295601,-15.2272,24.0,1,4921.0,4921.0
BIHU,HZK,medium_airport,Húsavík Airport,IS,65.952301,-17.426001,48.0,1,5266.0,5266.0
BIIS,IFJ,medium_airport,Ísafjörður Airport,IS,66.05809783935547,-23.135299682617188,8.0,1,4593.0,4593.0
BIKF,KEF,large_airport,Keflavik International Airport,IS,63.985001,-22.6056,171.0,2,10056.0,10038.0
BIRK,RKV,medium_airport,Reykjavik Airport,IS,64.1299972534,-21.9405994415,48.0,3,5141.0,4108.666666666667
BISI,SIJ,medium_airport,Siglufjörður Airport,IS,66.137847,-18.908157,10.0,1,3556.0,3556.0
BIVM,VEY,medium_airport,Vestmannaeyjar Airport,IS,63.42430114746094,-20.27890014648437,326.0,2,3934.0,3870.0
BKPR,PRN,medium_airport,Priština Adem Jashari International Airport,XK,42.5728,21.035801,1789.0,1,9974.0,9974.0
BR-0569,VDC,medium_airport,Glauber de Andrade Rocha Airport,BR,-14.907885,-40.914804,2940.0,1,6890.0,6890.0
BTZ,BTZ,medium_airport,Betong International Airport,TH,5.79,101.15,761.0,1,5906.0,5906.0
BY-0001,TXC,medium_airport,Orsha Airport - Balbasovo Air Base,BY,54.439999,30.2967,620.0,1,9845.0,9845.0
CAJ4,YAA,medium_airport,Anahim Lake Airport,CA,52.451501,-125.303776,3635.0,2,3930.0,3334.0
CAZ5,YZA,medium_airport,Cache Creek-Ashcroft Regional Airport,CA,50.775258,-121.321314,2034.0,1,3280.0,3280.0
CBBC,ZEL,medium_airport,Bella Bella (Campbell Island) Airport,CA,52.185001,-128.156994,141.0,1,3700.0,3700.0
CL-0015,WCH,medium_airport,Nuevo Chaitén Airport,CL,-42.781943,-72.834999,95.0,1,3937.0,3937.0
CN-0024,ZQZ,medium_airport,Zhangjiakou Ningyuan Airport,CN,40.738602,114.93,2347.0,1,8202.0,8202.0
CN-0027,BSD,medium_airport,Baoshan Yunrui Airport,CN,25.053301,99.168297,5453.0,1,7874.0,7874.0
CN-0040,LNJ,medium_airport,Lincang Boshang Airport,CN,23.7381,100.025002,6230.0,1,7874.0,7874.0
CN-0046,RKZ,medium_airport,Xigaze Peace Airport / Shigatse Air Base,CN,29.3519,89.311401,3782.0,2,16404.0,13123.5
CN-0050,PZI,medium_airport,Panzhihua Bao'anying Airport,CN,26.54,101.79852,1620.0,1,9186.0,9186.0
CN-0061,FUO,medium_airport,Foshan Shadi Airport,CN,23.0833,113.07,6.0,1,9186.0,9186.0
CN-0067,XAI,medium_airport,Xinyang Minggang Airport,CN,32.540819,114.079141,312.0,1,8858.0,8858.0
CN-0068,HUZ,medium_airport,Huizhou Pingtan Airport,CN,23.049999,114.599998,50.0,1,7874.0,7874.0
CN-0079,HSC,medium_airport,Shaoguan Danxia Airport,CN,24.9786,113.420998,280.0,1,9186.0,9186.0
CN-0080,,medium_airport,Suixi Air Base,CN,21.3958,110.199997,,1,9186.0,9186.0
CN-0081,JGS,medium_airport,Jinggangshan Airport,CN,26.856899,114.737,281.0,1,8530.0,8530.0
CN-0082,AEB,medium_airport,Baise Youjiang Airport,CN,23.7206,106.959999,490.0,1,8202.0,8202.0
CN-0089,LYG,medium_airport,Lianyungang Huaguoshan International Airport,CN,34.41406,119.17899,,1,9186.0,9186.0
CN-0090,,medium_airport,Cangxian Air Base,CN,38.403025,116.930924,,1,8235.0,8235.0
CN-0091,DOY,medium_airport,Dongying Shengli Airport,CN,37.5085983276,118.788002014,15.0,1,9186.0,9186.0
CN-0113,AAT,medium_airport,Altay Xuedu Airport,CN,47.749886,88.085808,2460.0,1,7218.0,7218.0
CN-0130,THQ,medium_airport,Tianshui Maijishan Airport,CN,34.559399,105.860001,3590.0,1,9186.0,9186.0
CN-0149,,medium_airport,Fuzhou Air Base,CN,26.0044,119.311996,,1,7874.0,7874.0
CN-0188,NAY,medium_airport,Beijing Nanjiao Airport,CN,39.48595,116.37236,,1,12467.0,12467.0
CN-0189,DDG,medium_airport,Dandong Langtou Airport,CN,40.0247,124.286003,30.0,1,8530.0,8530.0
CN-0316,,medium_airport,Chenghu General Airport,CN,31.215334,120.789328,,1,2146.0,2146.0
CN-0353,ZHA,medium_airport,Zhanjiang Wuchuan Airport,CN,21.481667,110.590278,,1,10499.0,10499.0
CN-NTG,NTG,medium_airport,Nantong Xingdong International Airport,CN,32.070801,120.975998,16.0,1,11155.0,11155.0
CNC3,,medium_airport,Brampton-Caledon Airport,CA,43.7603,-79.875,935.0,2,3500.0,3000.0
CYAC,YAC,medium_airport,Cat Lake Airport,CA,51.72719955444336,-91.82440185546876,1344.0,1,3900.0,3900.0
CYAG,YAG,medium_airport,Fort Frances Municipal Airport,CA,48.655749,-93.44349,1125.0,2,4500.0,3550.0
CYAH,YAH,medium_airport,La Grande-4 Airport,CA,53.754699707,-73.6753005981,1005.0,1,5000.0,5000.0
CYAL,YAL,medium_airport,Alert Bay Airport,CA,50.582199,-126.916,240.0,1,2900.0,2900.0
CYAM,YAM,medium_airport,Sault Ste Marie Airport,CA,46.485001,-84.509399,630.0,2,6000.0,6000.0
CYAQ,XKS,medium_airport,Kasabonika Airport,CA,53.52470016479492,-88.6427993774414,672.0,1,3500.0,3500.0
CYAS,YKG,medium_airport,Kangirsuk Airport,CA,60.02719879150391,-69.99919891357422,403.0,1,3521.0,3521.0
CYAT,YAT,medium_airport,Attawapiskat Airport,CA,52.9275016784668,-82.43190002441406,31.0,1,3500.0,3500.0
CYAV,,medium_airport,Winnipeg / St. Andrews Airport,CA,50.0564,-97.032501,760.0,3,3000.0,2950.0
CYAX,,medium_airport,Lac Du Bonnet Airport,CA,50.294399,-96.010002,850.0,1,3600.0,3600.0
CYAY,YAY,medium_airport,St. Anthony Airport,CA,51.391909,-56.08321,108.0,1,4000.0,4000.0
CYAZ,YAZ,medium_airport,Tofino / Long Beach Airport,CA,49.079833,-125.775583,80.0,3,5000.0,4998.666666666667
CYBB,YBB,medium_airport,Kugaaruk Airport,CA,68.534401,-89.808098,56.0,1,5000.0,5000.0
CYBC,YBC,medium_airport,Baie-Comeau Airport,CA,49.1325,-68.204399,71.0,1,6000.0,6000.0
CYBD,QBC,medium_airport,Bella Coola Airport,CA,52.387501,-126.596001,117.0,1,4200.0,4200.0
CYBE,YBE,medium_airport,Uranium City Airport,CA,59.5614013671875,-108.4810028076172,1044.0,1,3930.0,3930.0
CYBF,YBY,medium_airport,Bonnyville Airport,CA,54.304199,-110.744003,1836.0,1,4433.0,4433.0
CYBG,YBG,medium_airport,CFB Bagotville,CA,48.33060073852539,-70.99639892578125,522.0,2,10000.0,8000.0
CYBK,YBK,medium_airport,Baker Lake Airport,CA,64.29889678960001,-96.077796936,59.0,1,4200.0,4200.0
CYBL,YBL,medium_airport,Campbell River Airport,CA,49.950802,-125.271004,346.0,1,6499.0,6499.0
CYBQ,XTL,medium_airport,Tadoule Lake Airport,CA,58.7061,-98.512199,923.0,1,3200.0,3200.0
CYBR,YBR,medium_airport,Brandon Municipal Airport,CA,49.91,-99.951897,1343.0,3,6500.0,4098.333333333333
CYBT,YBT,medium_airport,Brochet Airport,CA,57.8894,-101.679001,1136.0,1,3500.0,3500.0
CYBU,,medium_airport,Nipawin Airport,CA,53.33250045776367,-104.00800323486328,1220.0,2,2930.0,2915.0
CYBV,YBV,medium_airport,Berens River Airport,CA,52.358898,-97.018303,728.0,1,2900.0,2900.0
CYBW,,medium_airport,Calgary / Springbank Airport,CA,51.1031,-114.374001,3940.0,2,5000.0,4211.5
CYBX,YBX,medium_airport,Lourdes-de-Blanc-Sablon Airport,CA,51.4436,-57.185299,121.0,1,4500.0,4500.0
CYCA,YRF,medium_airport,Cartwright Airport,CA,53.682501,-57.042303,40.0,1,2500.0,2500.0
CYCB,YCB,medium_airport,Cambridge Bay Airport,CA,69.1081008911,-105.138000488,90.0,1,5000.0,5000.0
CYCC,YCC,medium_airport,Cornwall Regional Airport,CA,45.092637,-74.567724,175.0,1,3500.0,3500.0
CYCD,YCD,medium_airport,Nanaimo Airport,CA,49.05497,-123.869863,92.0,1,6602.0,6602.0
CYCE,YCE,medium_airport,Centralia / James T. Field Memorial Aerodrome,CA,43.285599,-81.508301,824.0,2,5012.0,4706.0
CYCG,YCG,medium_airport,Castlegar/West Kootenay Regional Airport,CA,49.2963981628,-117.632003784,1624.0,1,5300.0,5300.0
CYCH,YCH,medium_airport,Miramichi Airport,CA,47.007801,-65.449203,108.0,4,10006.0,7054.75
CYCL,YCL,medium_airport,Charlo Airport,CA,47.990799,-66.330299,132.0,1,6000.0,6000.0
CYCN,YCN,medium_airport,Cochrane Airport,CA,49.10559844970703,-81.01360321044922,861.0,1,4500.0,4500.0
CYCO,YCO,medium_airport,Kugluktuk Airport,CA,67.816704,-115.143997,74.0,1,5500.0,5500.0
CYCP,,medium_airport,Blue River Airport,CA,52.11669921875,-119.28299713134766,2240.0,1,5000.0,5000.0
CYCQ,YCQ,medium_airport,Chetwynd Airport,CA,55.687198638916016,-121.6269989013672,2000.0,1,4484.0,4484.0
CYCR,YCR,medium_airport,Cross Lake (Charlie Sinclair Memorial) Airport,CA,54.610599517822266,-97.76080322265624,709.0,1,3990.0,3990.0
CYCS,YCS,medium_airport,Chesterfield Inlet Airport,CA,63.3469009399,-90.7311019897,32.0,1,3600.0,3600.0
CYCY,YCY,medium_airport,Clyde River Airport,CA,70.4860992432,-68.5167007446,87.0,1,3500.0,3500.0
CYDA,YDA,medium_airport,Dawson City Airport,CA,64.04309844970703,-139.1280059814453,1215.0,1,5000.0,5000.0
CYDB,YDB,medium_airport,Burwash Airport,CA,61.371101,-139.041,2647.0,1,5000.0,5000.0
CYDC,,medium_airport,Princeton Airport,CA,49.4681015015,-120.511001587,2298.0,1,3932.0,3932.0
CYDF,YDF,medium_airport,Deer Lake Airport,CA,49.21080017089844,-57.39139938354492,72.0,1,8005.0,8005.0
CYDM,XRR,medium_airport,Ross River Airport,CA,61.9706001282,-132.42300415,2314.0,1,5000.0,5000.0
CYDN,YDN,medium_airport,Dauphin Barker Airport,CA,51.10079956054688,-100.052001953125,999.0,3,5000.0,3233.3333333333335
CYDO,YDO,medium_airport,Dolbeau St Felicien Airport,CA,48.778499603271,-72.375,372.0,1,4971.0,4971.0
CYDP,YDP,medium_airport,Nain Airport,CA,56.550778,-61.682224,22.0,1,2000.0,2000.0
CYDQ,YDQ,medium_airport,Dawson Creek Airport,CA,55.7422981262207,-120.18299865722656,2148.0,1,5000.0,5000.0
CYEE,,medium_airport,Huronia Airport,CA,44.6833000183,-79.9282989502,770.0,1,3998.0,3998.0
CYEG,YEG,large_airport,Edmonton International Airport,CA,53.3097000122,-113.580001831,2373.0,2,11000.0,10600.0
CYEK,YEK,medium_airport,Arviat Airport,CA,61.0942001343,-94.0708007812,32.0,1,4000.0,4000.0
CYEL,YEL,medium_airport,Elliot Lake Municipal Airport,CA,46.351398468,-82.5614013672,1087.0,1,4500.0,4500.0
CYEM,YEM,medium_airport,Manitoulin East Municipal Airport,CA,45.842435,-81.857595,869.0,1,3500.0,3500.0
CYEN,YEN,medium_airport,Estevan Airport,CA,49.2103004456,-102.966003418,1905.0,2,5000.0,4000.0
CYER,YER,medium_airport,Fort Severn Airport,CA,56.01890182495117,-87.67610168457031,48.0,1,3500.0,3500.0
CYET,YET,medium_airport,Edson Airport,CA,53.5788993835,-116.464996338,3043.0,1,6000.0,6000.0
CYEV,YEV,medium_airport,Inuvik Mike Zubko Airport,CA,68.30419921880001,-133.483001709,224.0,1,6000.0,6000.0
CYEY,YEY,medium_airport,Amos/Magny Airport,CA,48.563903,-78.249702,1068.0,1,5000.0,5000.0
CYFA,YFA,medium_airport,Fort Albany Airport,CA,52.20140075683594,-81.6968994140625,48.0,1,3500.0,3500.0
CYFB,YFB,medium_airport,Iqaluit Airport,CA,63.756402,-68.555801,110.0,1,8605.0,8605.0
CYFC,YFC,medium_airport,Fredericton Airport,CA,45.868900299072266,-66.53720092773438,68.0,2,8005.0,7002.5
CYFE,YFE,medium_airport,Forestville Airport,CA,48.74610137939453,-69.09719848632812,293.0,1,5000.0,5000.0
CYFH,YFH,medium_airport,Fort Hope Airport,CA,51.5619010925293,-87.90779876708984,899.0,1,3500.0,3500.0
CYFJ,YTM,medium_airport,Mont-Tremblant International Airport,CA,46.409401,-74.779999,827.0,1,5587.0,5587.0
CYFO,YFO,medium_airport,Flin Flon Airport,CA,54.6781005859375,-101.68199920654295,997.0,1,5000.0,5000.0
CYFR,YFR,medium_airport,Fort Resolution Airport,CA,61.1808013916,-113.690002441,526.0,1,4000.0,4000.0
CYFS,YFS,medium_airport,Fort Simpson Airport,CA,61.76020050048828,-121.23699951171876,555.0,1,6000.0,6000.0
CYFT,YMN,medium_airport,Makkovik Airport,CA,55.077335,-59.187942,234.0,1,2500.0,2500.0
CYGB,YGB,medium_airport,Texada Gillies Bay Airport,CA,49.69419860839844,-124.51799774169922,326.0,1,3000.0,3000.0
CYGD,,medium_airport,Goderich Airport,CA,43.7668991089,-81.7106018066,712.0,3,5000.0,3290.0
CYGE,,medium_airport,Golden Airport,CA,51.299196,-116.982002,2575.0,1,4500.0,4500.0
CYGH,YGH,medium_airport,Fort Good Hope Airport,CA,66.24079895019531,-128.6510009765625,268.0,1,3000.0,3000.0
CYGK,YGK,medium_airport,Kingston Norman Rogers Airport,CA,44.22529983520508,-76.5969009399414,305.0,2,5000.0,4466.5
CYGL,YGL,medium_airport,La Grande Rivière Airport,CA,53.625301361083984,-77.7042007446289,639.0,1,6500.0,6500.0
CYGM,YGM,medium_airport,Gimli Industrial Park Airport,CA,50.62810134887695,-97.04329681396484,753.0,1,6800.0,6800.0
CYGO,YGO,medium_airport,Gods Lake Narrows Airport,CA,54.55889892578125,-94.49140167236328,617.0,1,3810.0,3810.0
CYGP,YGP,medium_airport,Gaspé (Michel-Pouliot) Airport,CA,48.7752990723,-64.4785995483,112.0,1,5488.0,5488.0
CYGQ,YGQ,medium_airport,Geraldton Greenstone Regional Airport,CA,49.77830123901367,-86.93939971923828,1144.0,1,5000.0,5000.0
CYGR,YGR,medium_airport,Îles-de-la-Madeleine Airport,CA,47.425242,-61.778612,35.0,2,4500.0,4050.0
CYGT,YGT,medium_airport,Igloolik Airport,CA,69.3647003174,-81.8161010742,174.0,1,4095.0,4095.0
CYGV,YGV,medium_airport,Havre-Saint-Pierre Airport,CA,50.281898,-63.611401,124.0,1,4500.0,4500.0
CYGW,YGW,medium_airport,Kuujjuarapik Airport,CA,55.28189849853516,-77.76529693603516,34.0,1,5052.0,5052.0
CYGX,YGX,medium_airport,Gillam Airport,CA,56.35749816894531,-94.71060180664062,476.0,1,5000.0,5000.0
CYHA,YQC,medium_airport,Quaqtaq Airport,CA,61.0463981628418,-69.6177978515625,103.0,1,3520.0,3520.0
CYHD,YHD,medium_airport,Dryden Regional Airport,CA,49.831699,-92.744202,1354.0,2,6000.0,4000.0
CYHE,YHE,medium_airport,Hope Airport / FVRD Regional Airpark,CA,49.368865,-121.49495,128.0,1,3960.0,3960.0
CYHF,YHF,medium_airport,Hearst René Fontaine Municipal Airport,CA,49.71419906616211,-83.68609619140625,827.0,1,4500.0,4500.0
CYHH,YNS,medium_airport,Nemiscau Airport,CA,51.69110107421875,-76.1355972290039,802.0,1,5000.0,5000.0
CYHI,YHI,medium_airport,Ulukhaktok Holman Airport,CA,70.76280212402344,-117.80599975585938,117.0,1,4300.0,4300.0
CYHK,YHK,medium_airport,Gjoa Haven Airport,CA,68.635597229,-95.8497009277,152.0,1,4400.0,4400.0
CYHM,YHM,medium_airport,John C. Munro Hamilton International Airport,CA,43.1735992432,-79.93499755859999,780.0,2,10006.0,8008.0
CYHN,YHN,medium_airport,Hornepayne Municipal Airport,CA,49.19309997558594,-84.75890350341797,1099.0,1,3500.0,3500.0
CYHO,YHO,medium_airport,Hopedale Airport,CA,55.448757,-60.228124,39.0,1,2500.0,2500.0
CYHR,YHR,medium_airport,Chevery Airport,CA,50.46889877319336,-59.63669967651367,39.0,1,4500.0,4500.0
CYHT,YHT,medium_airport,Haines Junction Airport,CA,60.7892,-137.546005,2150.0,1,5000.0,5000.0
CYHU,YHU,medium_airport,Montréal / Saint-Hubert Airport,CA,45.5175018311,-73.4169006348,90.0,3,7840.0,4853.333333333333
CYHY,YHY,medium_airport,Hay River / Merlyn Carter Airport,CA,60.8396987915,-115.782997131,541.0,2,6000.0,5000.5
CYHZ,YHZ,large_airport,Halifax / Stanfield International Airport,CA,44.8807983398,-63.5085983276,477.0,2,10500.0,9100.0
CYIB,YIB,medium_airport,Atikokan Municipal Airport,CA,48.7738990784,-91.6386032104,1408.0,1,3500.0,3500.0
CYID,YDG,medium_airport,Digby / Annapolis Regional Airport,CA,44.5458450365,-65.7854247093,499.0,1,3950.0,3950.0
CYIF,YIF,medium_airport,St Augustin Airport,CA,51.2117004395,-58.6582984924,20.0,1,4590.0,4590.0
CYIK,YIK,medium_airport,Ivujivik Airport,CA,62.41730117797852,-77.92530059814453,126.0,1,3521.0,3521.0
CYIO,YIO,medium_airport,Pond Inlet Airport,CA,72.6832962036,-77.9666976929,181.0,1,4000.0,4000.0
CYIV,YIV,medium_airport,Island Lake Airport,CA,53.857200622558594,-94.65360260009766,770.0,1,4000.0,4000.0
CYJF,YJF,medium_airport,Fort Liard Airport,CA,60.2358016968,-123.46900177,708.0,1,3000.0,3000.0
CYJN,YJN,medium_airport,St Jean Airport,CA,45.29439926147461,-73.28109741210938,136.0,3,4000.0,3079.6666666666665
CYJT,YJT,medium_airport,Stephenville Airport,CA,48.5442008972168,-58.54999923706055,84.0,2,10000.0,6950.0
CYKA,YKA,medium_airport,Kamloops Airport,CA,50.7022018433,-120.444000244,1133.0,2,8000.0,5037.0
CYKD,LAK,medium_airport,Aklavik/Freddie Carmichael Airport,CA,68.223297,-135.00599,23.0,2,3000.0,3000.0
CYKF,YKF,medium_airport,Waterloo Airport,CA,43.4608001709,-80.3786010742,1055.0,2,7002.0,5551.0
CYKG,YWB,medium_airport,Kangiqsujuaq (Wakeham Bay) Airport,CA,61.5886001587,-71.929397583,501.0,1,3511.0,3511.0
CYKJ,YKJ,medium_airport,Key Lake Airport,CA,57.25609970092773,-105.61799621582033,1679.0,1,5200.0,5200.0
CYKL,YKL,medium_airport,Schefferville Airport,CA,54.805301666259766,-66.8052978515625,1709.0,1,5000.0,5000.0
CYKO,AKV,medium_airport,Akulivik Airport,CA,60.81859970092773,-78.14859771728516,75.0,1,3510.0,3510.0
CYKQ,YKQ,medium_airport,Waskaganish Airport,CA,51.47330093383789,-78.75830078125,80.0,1,3500.0,3500.0
CYKX,YKX,medium_airport,Kirkland Lake Airport,CA,48.21030044555664,-79.98139953613281,1157.0,1,4500.0,4500.0
CYKY,YKY,medium_airport,Kindersley Airport,CA,51.5175018311,-109.180999756,2277.0,2,3507.0,2894.0
CYKZ,YKZ,medium_airport,Buttonville Municipal Airport,CA,43.86220169067383,-79.37000274658203,650.0,2,3897.0,3295.5
CYLA,YPJ,medium_airport,Aupaluk Airport,CA,59.29669952392578,-69.59970092773438,119.0,1,3521.0,3521.0
CYLD,YLD,medium_airport,Chapleau Airport,CA,47.81999969482422,-83.3467025756836,1470.0,2,5000.0,4000.0
CYLH,YLH,medium_airport,Lansdowne House Airport,CA,52.19559860229492,-87.93419647216797,834.0,1,3500.0,3500.0
CYLJ,YLJ,medium_airport,Meadow Lake Airport,CA,54.125301361083984,-108.52300262451172,1576.0,2,5000.0,3645.0
CYLK,YSG,medium_airport,Lutselk'e Airport,CA,62.418303,-110.681998,596.0,1,2996.0,2996.0
CYLL,YLL,medium_airport,Lloydminster Airport,CA,53.309200286865234,-110.072998046875,2193.0,2,5577.0,3538.5
CYLR,YLR,medium_airport,Leaf Rapids Airport,CA,56.513301849365234,-99.98529815673828,959.0,1,3000.0,3000.0
CYLT,YLT,medium_airport,Alert Airport,CA,82.517799,-62.280602,100.0,1,5500.0,5500.0
CYLU,XGR,medium_airport,Kangiqsualujjuaq (Georges River) Airport,CA,58.711399,-65.992798,215.0,1,3521.0,3521.0
CYLW,YLW,medium_airport,Kelowna International Airport,CA,49.9561,-119.377998,1421.0,1,8900.0,8900.0
CYMA,YMA,medium_airport,Mayo Airport,CA,63.61640167236328,-135.8679962158203,1653.0,1,4856.0,4856.0
CYME,YME,medium_airport,Matane Airport,CA,48.85689926147461,-67.45330047607422,102.0,1,5500.0,5500.0
CYMG,YMG,medium_airport,Manitouwadge Airport,CA,49.08390045166016,-85.86060333251953,1198.0,1,3600.0,3600.0
CYMH,YMH,medium_airport,Mary's Harbour Airport,CA,52.302837,-55.847626,38.0,1,2500.0,2500.0
CYMJ,YMJ,medium_airport,Moose Jaw Air Vice Marshal C. M. McEwen Airport,CA,50.330299377441406,-105.55899810791016,1892.0,3,8326.0,6335.333333333333
CYML,YML,medium_airport,Charlevoix Airport,CA,47.59749984741211,-70.2238998413086,977.0,1,4500.0,4500.0
CYMM,YMM,medium_airport,Fort McMurray Airport,CA,56.653301239,-111.222000122,1211.0,1,7503.0,7503.0
CYMO,YMO,medium_airport,Moosonee Airport,CA,51.29109954833984,-80.60780334472656,30.0,2,4000.0,3750.0
CYMT,YMT,medium_airport,Chapais Airport,CA,49.77190017700195,-74.5280990600586,1270.0,1,6496.0,6496.0
CYMU,YUD,medium_airport,Umiujaq Airport,CA,56.53609848022461,-76.51830291748047,250.0,1,3500.0,3500.0
CYMX,YMX,medium_airport,Montreal International (Mirabel) Airport,CA,45.679501,-74.038696,270.0,2,12000.0,10426.0
CYNA,YNA,medium_airport,Natashquan Airport,CA,50.18999862670898,-61.78919982910156,39.0,1,4494.0,4494.0
CYNC,YNC,medium_airport,Wemindji Airport,CA,53.01060104370117,-78.83110046386719,66.0,1,3510.0,3510.0
CYND,YND,medium_airport,Ottawa / Gatineau Airport,CA,45.521702,-75.563599,211.0,1,6000.0,6000.0
CYNE,YNE,medium_airport,Norway House Airport,CA,53.95830154418945,-97.84420013427734,734.0,1,3922.0,3922.0
CYNL,YNL,medium_airport,Points North Landing Airport,CA,58.27669906616211,-104.08200073242188,1605.0,1,6000.0,6000.0
CYNM,YNM,medium_airport,Matagami Airport,CA,49.76169967651367,-77.80280303955078,918.0,1,5000.0,5000.0
CYNN,,medium_airport,Nejanilini Lake Airport,CA,59.4874992371,-97.7802963257,1000.0,1,3350.0,3350.0
CYOA,YOA,medium_airport,Ekati Airport,CA,64.6988983154,-110.614997864,1536.0,1,6411.0,6411.0
CYOC,YOC,medium_airport,Old Crow Airport,CA,67.57060241699219,-139.83900451660156,824.0,1,4900.0,4900.0
CYOD,YOD,medium_airport,CFB Cold Lake,CA,54.40499877929688,-110.27899932861328,1775.0,3,12600.0,10290.0
CYOH,YOH,medium_airport,Oxford House Airport,CA,54.93330001831055,-95.27890014648438,663.0,1,3828.0,3828.0
CYOJ,YOJ,medium_airport,High Level Airport,CA,58.62139892578125,-117.16500091552734,1110.0,1,5000.0,5000.0
CYOO,YOO,medium_airport,Oshawa Executive Airport,CA,43.922798,-78.894997,460.0,2,4000.0,3327.0
CYOP,YOP,medium_airport,Rainbow Lake Airport,CA,58.49140167236328,-119.40799713134766,1759.0,1,4539.0,4539.0
CYOS,YOS,medium_airport,Owen Sound / Billy Bishop Regional Airport,CA,44.5903015137,-80.8375015259,1007.0,1,3932.0,3932.0
CYOW,YOW,large_airport,Ottawa Macdonald-Cartier International Airport,CA,45.322498,-75.669197,374.0,3,10000.0,7100.0
CYPA,YPA,medium_airport,Prince Albert Glass Field,CA,53.2141990662,-105.672996521,1405.0,2,5000.0,3750.0
CYPC,YPC,medium_airport,Paulatuk (Nora Aliqatchialuk Ruben) Airport,CA,69.3608381154,-124.075469971,15.0,1,4000.0,4000.0
CYPD,YPS,medium_airport,Port Hawkesbury Airport,CA,45.6567001343,-61.3680992126,377.0,1,5000.0,5000.0
CYPE,YPE,medium_airport,Peace River Airport,CA,56.226898,-117.446999,1873.0,2,5000.0,3450.0
CYPG,YPG,medium_airport,Portage-la-Prairie / Southport Airport,CA,49.903099,-98.273817,885.0,4,7000.0,3961.25
CYPH,YPH,medium_airport,Inukjuak Airport,CA,58.471900939941406,-78.07689666748047,83.0,1,3500.0,3500.0
CYPL,YPL,medium_airport,Pickle Lake Airport,CA,51.4463996887207,-90.21420288085938,1267.0,1,4921.0,4921.0
CYPM,YPM,medium_airport,Pikangikum Airport,CA,51.81969833374024,-93.97329711914062,1114.0,1,3500.0,3500.0
CYPN,YPN,medium_airport,Port Menier Airport,CA,49.83639907836914,-64.2885971069336,167.0,1,4886.0,4886.0
CYPQ,YPQ,medium_airport,Peterborough Municipal Airport,CA,44.23,-78.363297,628.0,2,7000.0,4500.0
CYPR,YPR,medium_airport,Prince Rupert Airport,CA,54.2860984802,-130.445007324,116.0,1,6000.0,6000.0
CYPW,YPW,medium_airport,Powell River Airport,CA,49.83420181274414,-124.5,425.0,1,3627.0,3627.0
CYPX,YPX,medium_airport,Puvirnituq Airport,CA,60.05059814453125,-77.28690338134766,74.0,1,6299.0,6299.0
CYPY,YPY,medium_airport,Fort Chipewyan Airport,CA,58.7672004699707,-111.11699676513672,761.0,1,5000.0,5000.0
CYPZ,YPZ,medium_airport,Burns Lake Airport,CA,54.3764,-125.950996,2343.0,1,5000.0,5000.0
CYQA,YQA,medium_airport,Muskoka Airport,CA,44.974700927734375,-79.30329895019531,925.0,2,6000.0,4090.0
CYQB,YQB,large_airport,Quebec Jean Lesage International Airport,CA,46.7911,-71.393303,244.0,2,9000.0,7350.0
CYQD,YQD,medium_airport,The Pas Airport,CA,53.97140121459961,-101.09100341796876,887.0,1,5901.0,5901.0
CYQF,YQF,medium_airport,Red Deer Regional Airport,CA,52.182201,-113.893997,2968.0,2,7500.0,5474.5
CYQG,YQG,medium_airport,Windsor Airport,CA,42.27560043334961,-82.95559692382812,622.0,2,9000.0,7075.0
CYQH,YQH,medium_airport,Watson Lake Airport,CA,60.11640167236328,-128.82200622558594,2255.0,1,5500.0,5500.0
CYQI,YQI,medium_airport,Yarmouth Airport,CA,43.82690048217773,-66.08809661865234,141.0,2,6000.0,5500.0
CYQK,YQK,medium_airport,Kenora Airport,CA,49.78829956054688,-94.36309814453124,1332.0,1,5800.0,5800.0
CYQL,YQL,medium_airport,Lethbridge County Airport,CA,49.6302986145,-112.800003052,3048.0,2,6500.0,6000.0
CYQM,YQM,medium_airport,Greater Moncton Roméo LeBlanc International Airport,CA,46.112202,-64.678596,232.0,2,10001.0,9000.5
CYQN,YQN,medium_airport,Nakina Airport,CA,50.18280029296875,-86.69640350341797,1057.0,3,3500.0,3300.0
CYQQ,YQQ,medium_airport,Comox Valley Airport / CFB Comox,CA,49.7108,-124.887001,84.0,2,10000.0,7500.0
CYQR,YQR,medium_airport,Regina International Airport,CA,50.43190002441406,-104.66600036621094,1894.0,2,7900.0,7050.0
CYQS,YQS,medium_airport,St Thomas Municipal Airport,CA,42.77000045776367,-81.11080169677734,778.0,3,5013.0,3410.0
CYQT,YQT,medium_airport,Thunder Bay Airport,CA,48.37189865112305,-89.32389831542969,653.0,2,7318.0,6307.5
CYQU,YQU,medium_airport,Grande Prairie Airport,CA,55.1796989441,-118.885002136,2195.0,2,8502.0,7351.0
CYQV,YQV,medium_airport,Yorkton Municipal Airport,CA,51.26470184326172,-102.46199798583984,1635.0,2,4800.0,3900.0
CYQW,YQW,medium_airport,North Battleford Airport,CA,52.769409,-108.243742,1799.0,2,5000.0,3782.5
CYQX,YQX,medium_airport,Gander International Airport / CFB Gander,CA,48.936258,-54.567719,496.0,3,10200.0,6991.666666666667
CYQY,YQY,medium_airport,Sydney / J.A. Douglas McCurdy Airport,CA,46.1614,-60.047798,203.0,2,7070.0,6533.5
CYQZ,YQZ,medium_airport,Quesnel Airport,CA,53.026100158691406,-122.51000213623048,1789.0,1,5500.0,5500.0
CYRB,YRB,medium_airport,Resolute Bay Airport,CA,74.7169036865,-94.9693984985,215.0,1,6500.0,6500.0
CYRI,YRI,medium_airport,Rivière-du-Loup Airport,CA,47.76440048217773,-69.58470153808594,427.0,1,6000.0,6000.0
CYRJ,YRJ,medium_airport,Roberval Airport,CA,48.52000045776367,-72.2656021118164,586.0,1,5000.0,5000.0
CYRL,YRL,medium_airport,Red Lake Airport,CA,51.06689834594727,-93.79309844970705,1265.0,1,5001.0,5001.0
CYRO,YRO,medium_airport,Ottawa / Rockcliffe Airport,CA,45.4603004456,-75.64610290530001,188.0,1,3300.0,3300.0
CYRP,,medium_airport,Ottawa / Carp Airport,CA,45.3191986084,-76.0222015381,382.0,2,3937.0,3071.0
CYRQ,YRQ,medium_airport,Trois-Rivières Airport,CA,46.35279846191406,-72.67939758300781,199.0,1,9006.0,9006.0
CYRS,YRS,medium_airport,Red Sucker Lake Airport,CA,54.16719818115234,-93.55719757080078,729.0,1,3555.0,3555.0
CYRT,YRT,medium_airport,Rankin Inlet Airport,CA,62.8114013672,-92.1157989502,94.0,1,6000.0,6000.0
CYRV,YRV,medium_airport,Revelstoke Airport,CA,50.962245,-118.184258,1459.0,1,4800.0,4800.0
CYSB,YSB,medium_airport,Sudbury Airport,CA,46.625,-80.79889678955078,1141.0,2,6600.0,5800.0
CYSC,YSC,medium_airport,Sherbrooke Airport,CA,45.438599,-71.691399,792.0,2,6000.0,6000.0
CYSF,YSF,medium_airport,Stony Rapids Airport,CA,59.250301361083984,-105.84100341796876,805.0,1,5050.0,5050.0
CYSG,,medium_airport,Saint-Georges Airport,CA,46.096401,-70.714699,893.0,1,5108.0,5108.0
CYSH,YSH,medium_airport,Smiths Falls-Montague (Russ Beach) Airport,CA,44.945801,-75.940598,416.0,2,4000.0,2750.0
CYSJ,YSJ,medium_airport,Saint John Airport,CA,45.31610107421875,-65.89029693603516,357.0,2,7000.0,6050.0
CYSK,YSK,medium_airport,Sanikiluaq Airport,CA,56.5377998352,-79.2466964722,104.0,1,3800.0,3800.0
CYSL,YSL,medium_airport,Saint-Léonard Airport,CA,47.157097,-67.836242,793.0,1,4000.0,4000.0
CYSM,YSM,medium_airport,Fort Smith Airport,CA,60.020302,-111.961998,671.0,2,6000.0,3900.0
CYSN,YCM,medium_airport,Niagara District Airport,CA,43.19169998168945,-79.17169952392578,321.0,3,5000.0,3166.6666666666665
CYSP,YSP,medium_airport,Marathon Airport,CA,48.75529861450195,-86.34439849853516,1035.0,1,3933.0,3933.0
CYSQ,,medium_airport,Atlin Airport,CA,59.576698,-133.669006,2348.0,1,3950.0,3950.0
CYST,YST,medium_airport,St. Theresa Point Airport,CA,53.84560012817383,-94.85189819335938,773.0,1,3400.0,3400.0
CYSU,YSU,medium_airport,Summerside Airport,CA,46.440601,-63.833599,56.0,3,8000.0,6253.333333333333
CYSY,YSY,medium_airport,Sachs Harbour (David Nasogaluak Jr. Saaryuaq) Airport,CA,71.9938964844,-125.242996216,282.0,1,4000.0,4000.0
CYTA,YTA,medium_airport,Pembroke Airport,CA,45.86439895629883,-77.25170135498047,529.0,1,5000.0,5000.0
CYTE,YTE,medium_airport,Cape Dorset Airport,CA,64.230003,-76.526703,164.0,1,4000.0,4000.0
CYTF,YTF,medium_airport,Alma Airport,CA,48.50889968869999,-71.64189910889999,445.0,1,4300.0,4300.0
CYTH,YTH,medium_airport,Thompson Airport,CA,55.80110168457031,-97.86419677734376,729.0,2,5800.0,4150.0
CYTL,YTL,medium_airport,Big Trout Lake Airport,CA,53.81779861450195,-89.89689636230469,729.0,1,3900.0,3900.0
CYTQ,YTQ,medium_airport,Tasiujaq Airport,CA,58.66780090332031,-69.95580291748047,122.0,1,3519.0,3519.0
CYTR,YTR,medium_airport,CFB Trenton,CA,44.118900299072266,-77.5280990600586,283.0,2,10000.0,6512.5
CYTS,YTS,medium_airport,Timmins/Victor M. Power,CA,48.5696983337,-81.376701355,967.0,2,6000.0,5451.5
CYTZ,YTZ,medium_airport,Billy Bishop Toronto City Centre Airport,CA,43.627499,-79.396202,252.0,3,3988.0,3233.6666666666665
CYUB,YUB,medium_airport,Tuktoyaktuk / James Gruben Airport,CA,69.433296,-133.026001,15.0,1,5000.0,5000.0
CYUL,YUL,large_airport,Montreal / Pierre Elliott Trudeau International Airport,CA,45.4706001282,-73.7407989502,118.0,3,11000.0,9200.0
CYUT,YUT,medium_airport,Naujaat Airport,CA,66.5214,-86.224701,80.0,1,3400.0,3400.0
CYUX,YUX,medium_airport,Hall Beach Airport,CA,68.7761,-81.2425,30.0,1,5410.0,5410.0
CYUY,YUY,medium_airport,Rouyn Noranda Airport,CA,48.20610046386719,-78.83560180664062,988.0,1,7485.0,7485.0
CYVB,YVB,medium_airport,Bonaventure Airport,CA,48.071098,-65.460297,123.0,1,5985.0,5985.0
CYVC,YVC,medium_airport,La Ronge Airport,CA,55.1514015198,-105.262001038,1242.0,2,5000.0,3698.0
CYVD,,medium_airport,Virden / RJ (Bob) Andrew Field Regional Aerodrome,CA,49.8783,-100.917999,1454.0,1,4000.0,4000.0
CYVK,YVE,medium_airport,Vernon Airport,CA,50.24810028076172,-119.33100128173828,1140.0,1,3360.0,3360.0
CYVM,YVM,medium_airport,Qikiqtarjuaq Airport,CA,67.546232,-64.031754,21.0,1,3800.0,3800.0
CYVO,YVO,medium_airport,Val-d'Or Airport,CA,48.0532989502,-77.7827987671,1107.0,1,10000.0,10000.0
CYVP,YVP,medium_airport,Kuujjuaq Airport,CA,58.096099853515625,-68.4269027709961,129.0,2,6000.0,5500.0
CYVQ,YVQ,medium_airport,Norman Wells Airport,CA,65.28160095214844,-126.7979965209961,238.0,1,5997.0,5997.0
CYVR,YVR,large_airport,Vancouver International Airport,CA,49.193901062,-123.183998108,14.0,4,11500.0,8060.0
CYVV,YVV,medium_airport,Wiarton Airport,CA,44.7458,-81.107201,729.0,2,5021.0,4060.5
CYVZ,YVZ,medium_airport,Deer Lake Airport,CA,52.655799865722656,-94.0614013671875,1092.0,1,3500.0,3500.0
CYWA,YWA,medium_airport,Petawawa Airport,CA,45.95220184326172,-77.31919860839844,427.0,1,3800.0,3800.0
CYWG,YWG,large_airport,Winnipeg / James Armstrong Richardson International Airport,CA,49.9099998474,-97.2398986816,783.0,3,11000.0,8066.666666666667
CYWJ,YWJ,medium_airport,Déline Airport,CA,65.211098,-123.435997,703.0,1,3933.0,3933.0
CYWK,YWK,medium_airport,Wabush Airport,CA,52.92190170288086,-66.8644027709961,1808.0,1,6002.0,6002.0
CYWL,YWL,medium_airport,Williams Lake Airport,CA,52.1831016541,-122.054000854,3085.0,1,7000.0,7000.0
CYWP,YWP,medium_airport,Webequie Airport,CA,52.9593933975,-87.3748683929,685.0,1,3500.0,3500.0
CYWY,YWY,medium_airport,Wrigley Airport,CA,63.20940017700195,-123.43699645996094,489.0,1,3500.0,3500.0
CYXC,YXC,medium_airport,Cranbrook/Canadian Rockies International Airport,CA,49.610801696777,-115.78199768066,3082.0,1,6000.0,6000.0
CYXE,YXE,medium_airport,Saskatoon John G. Diefenbaker International Airport,CA,52.17079925537109,-106.6999969482422,1653.0,2,8300.0,7250.0
CYXH,YXH,medium_airport,Medicine Hat Regional Airport,CA,50.018902,-110.721001,2352.0,2,5000.0,3910.0
CYXJ,YXJ,medium_airport,Fort St John Airport,CA,56.238098,-120.739998,2280.0,2,6900.0,6800.0
CYXK,YXK,medium_airport,Rimouski Airport,CA,48.47809982299805,-68.49690246582031,82.0,1,4600.0,4600.0
CYXL,YXL,medium_airport,Sioux Lookout Airport,CA,50.11389923095703,-91.9052963256836,1258.0,2,5300.0,3750.0
CYXN,YXN,medium_airport,Whale Cove Airport,CA,62.24000167849999,-92.5980987549,40.0,1,4000.0,4000.0
CYXP,YXP,medium_airport,Pangnirtung Airport,CA,66.1449966431,-65.71360015869999,75.0,1,2920.0,2920.0
CYXQ,YXQ,medium_airport,Beaver Creek Airport,CA,62.410301208496094,-140.86700439453125,2131.0,1,3370.0,3370.0
CYXR,YXR,medium_airport,Earlton (Timiskaming Regional) Airport,CA,47.6974006546,-79.8473453522,800.0,2,5998.0,4508.5
CYXS,YXS,medium_airport,Prince George Airport,CA,53.8894004822,-122.679000854,2267.0,3,11450.0,6949.0
CYXT,YXT,medium_airport,Northwest Regional Airport Terrace-Kitimat,CA,54.468498,-128.576009,713.0,2,7497.0,6435.0
CYXU,YXU,medium_airport,London Airport,CA,43.035599,-81.1539,912.0,2,8800.0,7550.0
CYXX,YXX,large_airport,Abbotsford International Airport,CA,49.025299,-122.361,195.0,3,9600.0,5476.0
CYXY,YXY,medium_airport,Whitehorse / Erik Nielsen International Airport,CA,60.709599,-135.067001,2317.0,3,9497.0,5190.666666666667
CYXZ,YXZ,medium_airport,Wawa Airport,CA,47.96670150756836,-84.78669738769531,942.0,1,4429.0,4429.0
CYYB,YYB,medium_airport,North Bay Jack Garland Airport,CA,46.363602,-79.422798,1215.0,3,10000.0,5658.0
CYYC,YYC,large_airport,Calgary International Airport,CA,51.113899231,-114.019996643,3557.0,4,14000.0,10218.75
CYYD,YYD,medium_airport,Smithers Airport,CA,54.82469940185547,-127.18299865722656,1712.0,1,5000.0,5000.0
CYYE,YYE,medium_airport,Fort Nelson Airport,CA,58.8363990784,-122.597000122,1253.0,2,6400.0,5234.0
CYYF,YYF,medium_airport,Penticton Airport,CA,49.46310043334961,-119.60199737548828,1129.0,1,6000.0,6000.0
CYYG,YYG,medium_airport,Charlottetown Airport,CA,46.290000915527344,-63.12110137939453,160.0,2,7002.0,7001.0
CYYH,YYH,medium_airport,Taloyoak Airport,CA,69.5467,-93.576698,92.0,1,4020.0,4020.0
CYYJ,YYJ,large_airport,Victoria International Airport,CA,48.6469,-123.426003,63.0,3,7000.0,5676.0
CYYL,YYL,medium_airport,Lynn Lake Airport,CA,56.86389923095703,-101.07599639892578,1170.0,2,5000.0,3760.0
CYYN,YYN,medium_airport,Swift Current Airport,CA,50.2919006348,-107.691001892,2680.0,2,4250.0,3375.0
CYYQ,YYQ,medium_airport,Churchill Airport,CA,58.739200592041016,-94.06500244140624,94.0,2,9200.0,6600.0
CYYR,YYR,medium_airport,Goose Bay Airport,CA,53.3191986084,-60.4258003235,160.0,2,11046.0,10313.0
CYYT,YYT,large_airport,St. John's International Airport,CA,47.618598938,-52.7518997192,461.0,3,8502.0,6845.0
CYYU,YYU,medium_airport,Kapuskasing Airport,CA,49.41389846801758,-82.46749877929688,743.0,2,5500.0,4545.0
CYYW,YYW,medium_airport,Armstrong Airport,CA,50.29029846191406,-88.90969848632812,1058.0,2,4000.0,3470.0
CYYY,YYY,medium_airport,Mont Joli Airport,CA,48.60860061645508,-68.20809936523438,172.0,2,6000.0,4967.0
CYYZ,YYZ,large_airport,Lester B. Pearson International Airport,CA,43.6772003174,-79.63059997559999,569.0,5,11120.0,9991.0
CYZD,,medium_airport,Downsview Airport,CA,43.7425,-79.465599,652.0,2,7003.0,5083.5
CYZE,YZE,medium_airport,Gore Bay Manitoulin Airport,CA,45.8853,-82.567802,623.0,1,4900.0,4900.0
CYZF,YZF,medium_airport,Yellowknife International Airport,CA,62.462799,-114.440002,675.0,2,7500.0,6250.0
CYZG,YZG,medium_airport,Salluit Airport,CA,62.17940139770508,-75.66719818115234,743.0,1,3500.0,3500.0
CYZH,YZH,medium_airport,Slave Lake Airport,CA,55.2930984497,-114.777000427,1912.0,1,5561.0,5561.0
CYZP,YZP,medium_airport,Sandspit Airport,CA,53.25429916379999,-131.813995361,21.0,1,5120.0,5120.0
CYZR,YZR,medium_airport,Chris Hadfield Airport,CA,42.9994010925293,-82.30889892578125,594.0,2,5100.0,4044.5
CYZS,YZS,medium_airport,Coral Harbour Airport,CA,64.1932983398,-83.3593978882,210.0,1,5000.0,5000.0
CYZT,YZT,medium_airport,Port Hardy Airport,CA,50.68059921264648,-127.36699676513672,71.0,3,5000.0,4333.333333333333
CYZU,YZU,medium_airport,Whitecourt Airport,CA,54.14390182495117,-115.78700256347656,2567.0,1,5800.0,5800.0
CYZV,YZV,medium_airport,Sept-Îles Airport,CA,50.22330093383789,-66.2656021118164,180.0,3,6552.0,6074.333333333333
CYZW,YZW,medium_airport,Teslin Airport,CA,60.17279815673828,-132.7429962158203,2313.0,1,5000.0,5000.0
CYZX,YZX,medium_airport,CFB Greenwood,CA,44.98440170288086,-64.91690063476562,92.0,2,8000.0,8000.0
CYZY,,medium_airport,Mackenzie Airport,CA,55.304402,-123.132004,2264.0,1,5000.0,5000.0
CZAC,ZAC,medium_airport,York Landing Airport,CA,56.08940124511719,-96.08920288085938,621.0,1,3395.0,3395.0
CZAM,YSN,medium_airport,Shuswap Regional Airport,CA,50.682802,-119.228996,1751.0,1,4260.0,4260.0
CZBB,YDT,medium_airport,Boundary Bay Airport,CA,49.0742,-123.012001,6.0,3,5606.0,5358.666666666667
CZBD,ILF,medium_airport,Ilford Airport,CA,56.05163,-95.620523,642.0,1,3000.0,3000.0
CZBF,ZBF,medium_airport,Bathurst Airport,CA,47.6297,-65.738899,193.0,1,4500.0,4500.0
CZBM,ZBM,medium_airport,Bromont (Roland Désourdy) Airport,CA,45.290798,-72.741402,375.0,2,5000.0,4100.0
CZEE,KES,medium_airport,Kelsey Airport,CA,56.0374984741,-96.5096969604,600.0,1,2590.0,2590.0
CZEM,ZEM,medium_airport,Eastmain River Airport,CA,52.22639846801758,-78.52249908447266,24.0,1,3510.0,3510.0
CZFA,ZFA,medium_airport,Faro Airport,CA,62.20750045776367,-133.37600708007812,2351.0,1,4000.0,4000.0
CZFD,ZFD,medium_airport,Fond-Du-Lac Airport,CA,59.33440017700195,-107.18199920654295,814.0,1,3800.0,3800.0
CZFG,XPK,medium_airport,Pukatawagan Airport,CA,55.7491989136,-101.26599884,958.0,1,3000.0,3000.0
CZFM,ZFM,medium_airport,Fort Mcpherson Airport,CA,67.40750122070312,-134.86099243164062,116.0,1,3500.0,3500.0
CZFN,ZFN,medium_airport,Tulita Airport,CA,64.909697,-125.572998,332.0,1,3935.0,3935.0
CZGF,ZGF,medium_airport,Grand Forks Airport,CA,49.015598,-118.431,1720.0,1,4300.0,4300.0
CZGI,ZGI,medium_airport,Gods River Airport,CA,54.83969879150391,-94.07859802246094,627.0,1,3540.0,3540.0
CZGR,ZGR,medium_airport,Little Grand Rapids Airport,CA,52.04560089111328,-95.4657974243164,1005.0,1,2800.0,2800.0
CZJG,ZJG,medium_airport,Jenpeg Airport,CA,54.51890182495117,-98.0460968017578,729.0,1,3800.0,3800.0
CZJN,ZJN,medium_airport,Swan River Airport,CA,52.120602,-101.236,1100.0,2,3933.0,2941.5
CZKE,ZKE,medium_airport,Kashechewan Airport,CA,52.282501220703125,-81.67780303955078,35.0,1,3500.0,3500.0
CZLQ,YTD,medium_airport,Thicket Portage Airport,CA,55.31890106201172,-97.70780181884766,678.0,1,2220.0,2220.0
CZMD,MSA,medium_airport,Muskrat Dam Airport,CA,53.44139862060547,-91.76280212402344,911.0,1,3500.0,3500.0
CZMN,PIW,medium_airport,Pikwitonei Airport,CA,55.58890151977539,-97.16419982910156,630.0,1,2200.0,2200.0
CZMT,ZMT,medium_airport,Masset Airport,CA,54.02750015258789,-132.125,25.0,1,5000.0,5000.0
CZNG,XPP,medium_airport,Poplar River Airport,CA,52.9965258788,-97.2741937637,728.0,1,2500.0,2500.0
CZPB,ZPB,medium_airport,Sachigo Lake Airport,CA,53.8911018371582,-92.19640350341795,876.0,1,3500.0,3500.0
CZPC,WPC,medium_airport,Pincher Creek Airport,CA,49.520599365200006,-113.997001648,3903.0,1,6600.0,6600.0
CZRJ,ZRJ,medium_airport,Round Lake (Weagamow Lake) Airport,CA,52.94359970092773,-91.31279754638672,974.0,1,3500.0,3500.0
CZSJ,ZSJ,medium_airport,Sandy Lake Airport,CA,53.06420135498047,-93.34439849853516,951.0,1,3500.0,3500.0
CZSN,XSI,medium_airport,South Indian Lake Airport,CA,56.7928009033,-98.9072036743,951.0,1,3509.0,3509.0
CZST,ZST,medium_airport,Stewart Airport,CA,55.935410448,-129.982434511,24.0,1,3900.0,3900.0
CZTM,ZTM,medium_airport,Shamattawa Airport,CA,55.8656005859375,-92.0813980102539,289.0,1,4006.0,4006.0
CZUC,ZUC,medium_airport,Ignace Municipal Airport,CA,49.428204,-91.720418,1435.0,1,3512.0,3512.0
CZWH,XLB,medium_airport,Lac Brochet Airport,CA,58.6175003052,-101.46900177,1211.0,1,3500.0,3500.0
CZWL,ZWL,medium_airport,Wollaston Lake Airport,CA,58.10689926147461,-103.1719970703125,1360.0,1,3800.0,3800.0
DAAB,QLD,medium_airport,Blida Airport,DZ,36.503601,2.81417,535.0,1,5833.0,5833.0
DAAD,BUJ,medium_airport,Bou Saada Airport,DZ,35.3325,4.20639,1506.0,1,7218.0,7218.0
DAAE,BJA,medium_airport,Soummam–Abane Ramdane Airport,DZ,36.711952,5.069804,20.0,1,7874.0,7874.0
DAAG,ALG,large_airport,Houari Boumediene Airport,DZ,36.693886,3.214531,82.0,2,11483.0,11483.0
DAAJ,DJG,medium_airport,Djanet Inedbirene Airport,DZ,24.292801,9.45244,3176.0,2,9843.0,8858.5
DAAK,,medium_airport,Boufarik Air Base,DZ,36.545799,2.87611,335.0,1,11883.0,11883.0
DAAP,VVZ,medium_airport,Illizi Takhamalt Airport,DZ,26.723499,8.62265,1778.0,1,9843.0,9843.0
DAAS,QSF,medium_airport,Ain Arnat Airport,DZ,36.178100585900005,5.32449007034,3360.0,1,9498.0,9498.0
DAAT,TMR,medium_airport,Aguenar – Hadj Bey Akhamok Airport,DZ,22.811501,5.45108,4518.0,2,11811.0,10991.0
DAAV,GJL,medium_airport,Jijel Ferhat Abbas Airport,DZ,36.795101,5.87361,36.0,1,7874.0,7874.0
DAAY,MZW,medium_airport,Mecheria Airport,DZ,33.535900116,-0.242353007197,3855.0,2,11780.0,10608.0
DAAZ,,medium_airport,Relizane Airport,DZ,35.752955,0.625877,282.0,1,4265.0,4265.0
DABB,AAE,medium_airport,Annaba Rabah Bitat Airport,DZ,36.826781,7.81334,16.0,2,9843.0,8678.0
DABC,CZL,medium_airport,Mohamed Boudiaf International Airport,DZ,36.2760009765625,6.620389938354492,2265.0,2,9843.0,8858.5
DABS,TEE,medium_airport,Cheikh Larbi Tébessi Airport,DZ,35.4315986633,8.12071990967,2661.0,2,9843.0,8858.5
DABT,BLJ,medium_airport,Batna Mostefa Ben Boulaid Airport,DZ,35.752102,6.30859,2697.0,1,9843.0,9843.0
DAFH,HRM,medium_airport,Hassi R'Mel Airport,DZ,32.930401,3.31154,2540.0,2,9835.0,7265.0
DAOB,TID,medium_airport,Abdelhafid Boussouf Bou Chekif Airport,DZ,35.341099,1.46315,3245.0,1,9843.0,9843.0
DAOF,TIN,medium_airport,Tindouf Airport,DZ,27.7003993988,-8.167099952700001,1453.0,2,9840.0,9840.0
DAOI,CFK,medium_airport,Chlef Aboubakr Belkaid International Airport,DZ,36.217166,1.342237,463.0,1,5413.0,5413.0
DAOL,TAF,medium_airport,Oran Tafraoui Airport,DZ,35.5424,-0.532278,367.0,1,9037.0,9037.0
DAON,TLM,medium_airport,Zenata – Messali El Hadj Airport,DZ,35.013426,-1.457191,814.0,1,8530.0,8530.0
DAOO,ORN,medium_airport,Oran Es-Sénia (Ahmed Ben Bella) International Airport,DZ,35.623901,-0.621183,295.0,2,11811.0,10827.0
DAOR,CBH,medium_airport,Béchar Boudghene Ben Ali Lotfi Airport,DZ,31.64570045471192,-2.269860029220581,2661.0,2,12245.0,11042.5
DAOV,MUW,medium_airport,Ghriss Airport,DZ,35.207699,0.147142,1686.0,1,5577.0,5577.0
DAUA,AZR,medium_airport,Touat Cheikh Sidi Mohamed Belkebir Airport,DZ,27.837601,-0.186414,919.0,1,9843.0,9843.0
DAUB,BSK,medium_airport,Biskra - Mohamed Khider Airport,DZ,34.793301,5.73823,289.0,1,9469.0,9469.0
DAUE,ELG,medium_airport,El Golea Airport,DZ,30.580732,2.861595,1306.0,2,9843.0,7874.5
DAUG,GHA,medium_airport,Noumérat - Moufdi Zakaria Airport,DZ,32.384102,3.79411,1512.0,2,10171.0,9022.5
DAUH,HME,medium_airport,Hassi Messaoud-Oued Irara Krim Belkacem Airport,DZ,31.673,6.14044,463.0,1,9843.0,9843.0
DAUI,INZ,medium_airport,In Salah Airport,DZ,27.250999,2.51202,896.0,1,9843.0,9843.0
DAUK,TGR,medium_airport,Touggourt Sidi Madhi Airport,DZ,33.067799,6.08867,279.0,1,9843.0,9843.0
DAUL,LOO,medium_airport,Laghouat - Molay Ahmed Medeghri Airport,DZ,33.7644,2.92834,2510.0,2,12486.0,12481.5
DAUO,ELU,medium_airport,Guemar Airport,DZ,33.5113983154,6.77679014206,203.0,2,9843.0,8202.5
DAUT,TMX,medium_airport,Timimoun Airport,DZ,29.237101,0.276033,1027.0,1,9843.0,9843.0
DAUU,OGX,medium_airport,Ain Beida Airport,DZ,31.9172,5.41278,492.0,2,10171.0,10007.0
DAUZ,IAM,medium_airport,Zarzaitine - In Aménas Airport,DZ,28.0515,9.64291,1847.0,2,9843.0,8530.5
DBBB,COO,medium_airport,Cadjehoun Airport,BJ,6.357230186462402,2.384350061416626,19.0,1,7874.0,7874.0
DBC,DBC,medium_airport,Baicheng Chang'an Airport,CN,45.505278,123.019722,480.0,1,8202.0,8202.0
DFFD,OUA,medium_airport,Ouagadougou Airport,BF,12.3532,-1.51242,1037.0,2,9843.0,8056.0
DFOO,BOY,medium_airport,Bobo Dioulasso Airport,BF,11.160099983215332,-4.33096981048584,1511.0,1,10826.0,10826.0
DGAA,ACC,large_airport,Kotoka International Airport,GH,5.605189800262451,-0.1667860001325607,205.0,1,11165.0,11165.0
DGAH,,medium_airport,Ho Airport,GH,6.579691,0.532547,356.0,1,5266.0,5266.0
DGLE,TML,medium_airport,Tamale Airport,GH,9.55718994140625,-0.8632140159606934,553.0,1,7999.0,7999.0
DGSI,KMS,medium_airport,Kumasi Airport,GH,6.714560031890869,-1.5908199548721311,942.0,1,6502.0,6502.0
DGSN,NYI,medium_airport,Sunyani Airport,GH,7.36183,-2.32876,1014.0,1,4227.0,4227.0
DGTK,TKD,medium_airport,Takoradi Airport,GH,4.896059989929199,-1.7747600078582764,21.0,1,5745.0,5745.0
DIAP,ABJ,medium_airport,Félix-Houphouët-Boigny International Airport,CI,5.26139,-3.92629,21.0,1,9843.0,9843.0
DIBK,BYK,medium_airport,Bouaké Airport,CI,7.7388,-5.07367,1230.0,1,10827.0,10827.0
DIDL,DJO,medium_airport,Daloa Airport,CI,6.792809963226318,-6.473189830780029,823.0,1,6562.0,6562.0
DIKO,HGO,medium_airport,Korhogo Airport,CI,9.38718,-5.55666,1214.0,1,6890.0,6890.0
DIMN,MJC,medium_airport,Man Airport,CI,7.272069931030273,-7.58735990524292,1089.0,1,6726.0,6726.0
DISP,SPY,medium_airport,San Pedro Airport,CI,4.746719837188721,-6.660820007324219,26.0,1,6234.0,6234.0
DIYO,ASK,medium_airport,Yamoussoukro Airport,CI,6.9031701088,-5.36558008194,699.0,1,9843.0,9843.0
DNAA,ABV,large_airport,Nnamdi Azikiwe International Airport,NG,9.006790161132812,7.263169765472412,1123.0,1,11842.0,11842.0
DNAI,QUO,medium_airport,Akwa Ibom International Airport,NG,4.8725,8.093,170.0,1,11811.0,11811.0
DNAK,AKR,medium_airport,Akure Airport,NG,7.246739864349365,5.3010101318359375,1100.0,1,9195.0,9195.0
DNAS,ABB,medium_airport,Asaba International Airport,NG,6.204167,6.665278,305.0,1,11155.0,11155.0
DNBC,BCU,medium_airport,Sir Abubakar Tafawa Balewa International Airport,NG,10.482833,9.744,1965.0,1,11154.0,11154.0
DNBE,BNI,medium_airport,Benin Airport,NG,6.316979885101318,5.599500179290772,258.0,1,7870.0,7870.0
DNBY,,medium_airport,Bayelsa International Airport,NG,4.95759,6.203327,67.0,1,12139.0,12139.0
DNCA,CBQ,medium_airport,Margaret Ekpo International Airport,NG,4.976019859313965,8.347200393676758,210.0,1,8040.0,8040.0
DNEN,ENU,medium_airport,Akanu Ibiam International Airport,NG,6.474269866943359,7.561960220336914,466.0,1,7879.0,7879.0
DNGU,,medium_airport,Gusau Airport,NG,12.1717,6.69611,1520.0,1,4800.0,4800.0
DNIB,IBA,medium_airport,Ibadan Airport,NG,7.362460136413574,3.97832989692688,725.0,1,7875.0,7875.0
DNIL,ILR,medium_airport,Ilorin International Airport,NG,8.440210342407227,4.493919849395752,1126.0,1,10169.0,10169.0
DNIM,QOW,medium_airport,Sam Mbakwe International Airport,NG,5.427060127258301,7.206029891967773,373.0,1,8858.0,8858.0
DNJO,JOS,medium_airport,Yakubu Gowon Airport,NG,9.639829635620115,8.869050025939941,4232.0,1,9845.0,9845.0
DNKA,KAD,medium_airport,Kaduna Airport,NG,10.696000099182127,7.320109844207764,2073.0,1,9843.0,9843.0
DNKN,KAN,medium_airport,Mallam Aminu International Airport,NG,12.0476,8.52462,1562.0,2,10831.0,9435.5
DNMA,MIU,medium_airport,Maiduguri International Airport,NG,11.855299949645996,13.080900192260742,1099.0,1,9846.0,9846.0
DNMK,MDI,medium_airport,Makurdi Airport,NG,7.70388,8.61394,371.0,1,9830.0,9830.0
DNMM,LOS,large_airport,Murtala Muhammed International Airport,NG,6.5773701667785645,3.321160078048706,135.0,2,12794.0,10895.5
DNMN,MXJ,medium_airport,Minna Airport,NG,9.652170181274414,6.462259769439697,834.0,1,11153.0,11153.0
DNPO,PHC,medium_airport,Port Harcourt International Airport,NG,5.0154900550842285,6.94959020614624,87.0,1,9846.0,9846.0
DNSO,SKO,medium_airport,Sadiq Abubakar III International Airport,NG,12.916299819946287,5.207190036773682,1010.0,1,9844.0,9844.0
DNYO,YOL,medium_airport,Yola Airport,NG,9.257550239562988,12.430399894714355,599.0,2,9840.0,7500.0
DNZA,ZAR,medium_airport,Zaria Airport,NG,11.1302,7.68581,2170.0,1,5462.0,5462.0
DRRM,MFQ,medium_airport,Maradi Airport,NE,13.5024995803833,7.1267499923706055,1240.0,1,6070.0,6070.0
DRRN,NIM,large_airport,Diori Hamani International Airport,NE,13.4815,2.18361,732.0,2,10499.0,10171.0
DRRT,THZ,medium_airport,Tahoua Airport,NE,14.8757,5.26536,1266.0,1,7053.0,7053.0
DRZA,AJY,medium_airport,Mano Dayak International Airport,NE,16.965999603271484,8.000109672546387,1657.0,1,9843.0,9843.0
DRZR,ZND,medium_airport,Zinder Airport,NE,13.779000282287598,8.983759880065918,1516.0,1,5988.0,5988.0
DTKA,TBJ,medium_airport,Tabarka-Aïn Draham International Airport,TN,36.98,8.87694,230.0,1,9416.0,9416.0
DTMB,MIR,medium_airport,Monastir Habib Bourguiba International Airport,TN,35.75809860229492,10.75469970703125,9.0,1,9678.0,9678.0
DTNH,NBE,medium_airport,Enfidha - Hammamet International Airport,TN,36.075833,10.438611,21.0,1,10827.0,10827.0
DTTA,TUN,large_airport,Tunis Carthage International Airport,TN,36.851002,10.2272,22.0,2,10499.0,9908.5
DTTB,,medium_airport,Bizerte Sidi Ahmed Air Base,TN,37.242356,9.787016,20.0,2,9845.0,6910.0
DTTD,,medium_airport,Remada Air Base,TN,32.30619812011719,10.382100105285645,1004.0,1,7812.0,7812.0
DTTF,GAF,medium_airport,Gafsa Ksar International Airport,TN,34.422000885009766,8.822500228881836,1060.0,1,9514.0,9514.0
DTTG,GAE,medium_airport,Gabès Matmata International Airport,TN,33.733691,9.91941,407.0,1,3702.0,3702.0
DTTJ,DJE,medium_airport,Djerba Zarzis International Airport,TN,33.875,10.7755,19.0,1,10171.0,10171.0
DTTR,EBM,medium_airport,El Borma Airport,TN,31.70429992675781,9.254619598388672,827.0,1,8858.0,8858.0
DTTX,SFA,medium_airport,Sfax Thyna International Airport,TN,34.71799850463867,10.690999984741213,85.0,1,9843.0,9843.0
DTTZ,TOE,medium_airport,Tozeur Nefta International Airport,TN,33.939701080322266,8.110560417175293,287.0,1,10581.0,10581.0
DXNG,LRL,medium_airport,Niamtougou International Airport,TG,9.767330169677734,1.091249942779541,1515.0,1,8202.0,8202.0
DXXX,LFW,medium_airport,Lomé–Tokoin International Airport,TG,6.16561,1.25451,72.0,1,9847.0,9847.0
DZ-0016,,medium_airport,Amguid Regional Airport,DZ,26.393417,5.325419,2001.0,1,8858.0,8858.0
EBAW,ANR,medium_airport,Antwerp International Airport (Deurne),BE,51.1894,4.46028,39.0,1,4954.0,4954.0
EBBE,,medium_airport,Beauvechain Air Base,BE,50.75859832763672,4.768330097198486,370.0,2,10085.0,9061.5
EBBL,,medium_airport,Kleine Brogel Air Base,BE,51.168301,5.47,200.0,2,10158.0,9016.0
EBBR,BRU,large_airport,Brussels Airport,BE,50.901402,4.48444,184.0,3,11936.0,10757.0
EBCI,CRL,medium_airport,Brussels South Charleroi Airport,BE,50.459202,4.45382,614.0,1,10023.0,10023.0
EBCV,,medium_airport,Chièvres Air Base,BE,50.575801849365234,3.8310000896453857,194.0,1,8197.0,8197.0
EBFN,,medium_airport,Koksijde Air Base,BE,51.09030151367188,2.652780055999756,20.0,2,8786.0,5703.5
EBFS,,medium_airport,Florennes Air Base,BE,50.2433013916,4.64583015442,935.0,2,11105.0,9243.0
EBKT,KJK,medium_airport,Wevelgem Airport,BE,50.8172,3.20472,55.0,1,6234.0,6234.0
EBLG,LGG,medium_airport,Liège Airport,BE,50.637402,5.44322,659.0,2,12106.0,9891.5
EBOS,OST,medium_airport,Ostend-Bruges International Airport,BE,51.1998,2.874673,13.0,2,10499.0,6278.0
EDAC,AOC,medium_airport,Altenburg-Nobitz Airport,DE,50.981945,12.506389,640.0,1,7333.0,7333.0
EDAH,HDF,medium_airport,Heringsdorf Airport,DE,53.8787002563,14.152299881,93.0,2,7562.0,4765.5
EDBM,ZMG,medium_airport,"Magdeburg ""City"" Airport",DE,52.073612,11.626389,259.0,1,3281.0,3281.0
EDBN,FNB,medium_airport,Neubrandenburg Airport,DE,53.6022,13.306,228.0,1,7522.0,7522.0
EDBR,,medium_airport,Rothenburg/Görlitz Airfield,DE,51.363335,14.95,518.0,2,8202.0,6102.5
EDDB,BER,large_airport,Berlin Brandenburg Airport,DE,52.362247,13.500672,157.0,2,13123.0,12467.0
EDDC,DRS,medium_airport,Dresden Airport,DE,51.134123,13.767831,755.0,1,9350.0,9350.0
EDDE,ERF,medium_airport,Erfurt Airport,DE,50.97980117797852,10.958100318908691,1036.0,1,8530.0,8530.0
EDDF,FRA,large_airport,Frankfurt Airport,DE,50.036521,8.561268,364.0,4,13123.0,12138.75
EDDG,FMO,medium_airport,Münster Osnabrück Airport,DE,52.134602,7.68483,160.0,1,7119.0,7119.0
EDDH,HAM,large_airport,Hamburg Helmut Schmidt Airport,DE,53.630402,9.98823,53.0,2,12028.0,11345.5
EDDK,CGN,large_airport,Cologne Bonn Airport,DE,50.865898,7.14274,302.0,3,12516.0,8898.333333333334
EDDL,DUS,large_airport,Düsseldorf Airport,DE,51.289501,6.76678,147.0,2,9842.0,9350.0
EDDM,MUC,large_airport,Munich Airport,DE,48.353802,11.7861,1487.0,2,13123.0,13123.0
EDDN,NUE,large_airport,Nuremberg Airport,DE,49.498699,11.078056,1046.0,1,8858.0,8858.0
EDDP,LEJ,large_airport,Leipzig/Halle Airport,DE,51.423889,12.236389,465.0,2,11811.0,11811.0
EDDR,SCN,medium_airport,Saarbrücken Airport,DE,49.2145996094,7.10950994492,1058.0,2,6562.0,4175.0
EDDS,STR,large_airport,Stuttgart Airport,DE,48.6898994446,9.22196006775,1276.0,1,10974.0,10974.0
EDDV,HAJ,large_airport,Hannover Airport,DE,52.461102,9.68508,183.0,3,12467.0,7567.666666666667
EDDW,BRE,medium_airport,Bremen Airport,DE,53.047501,8.78667,14.0,2,6693.0,4495.0
EDFE,,medium_airport,Frankfurt-Egelsbach Airport,DE,49.959999,8.645833,384.0,2,4593.0,3395.5
EDFH,HHN,medium_airport,Frankfurt-Hahn Airport,DE,49.9487,7.26389,1649.0,1,12467.0,12467.0
EDFM,MHG,medium_airport,Mannheim-City Airport,DE,49.473057,8.514167,308.0,2,3497.0,2897.0
EDFZ,,medium_airport,Mainz-Finthen Airport,DE,49.967499,8.147222,760.0,2,3281.0,3281.0
EDGE,EIB,medium_airport,Eisenach-Kindel Airport,DE,50.991604,10.47973,1112.0,1,5643.0,5643.0
EDGS,SGE,medium_airport,Siegerland Airport,DE,50.70769882202149,8.082969665527344,1966.0,3,5315.0,2974.6666666666665
EDHI,XFW,medium_airport,Hamburg-Finkenwerder Airport,DE,53.5352783203125,9.835556030273438,23.0,1,8629.0,8629.0
EDHK,KEL,medium_airport,Kiel-Holtenau Airport,DE,54.379444,10.145278,102.0,2,4134.0,2805.0
EDHL,LBC,medium_airport,Lübeck Blankensee Airport,DE,53.8054008484,10.7192001343,53.0,1,6896.0,6896.0
EDJA,FMM,medium_airport,Memmingen Allgau Airport,DE,47.9888000488,10.2395000458,2077.0,1,8629.0,8629.0
EDLN,MGL,medium_airport,Mönchengladbach Airport,DE,51.230278,6.504444,125.0,1,3937.0,3937.0
EDLP,PAD,medium_airport,Paderborn Lippstadt Airport,DE,51.6141014099,8.616319656369999,699.0,1,7152.0,7152.0
EDLV,NRN,medium_airport,Weeze Airport,DE,51.6024017334,6.14216995239,106.0,1,8005.0,8005.0
EDLW,DTM,medium_airport,Dortmund Airport,DE,51.518299,7.61224,425.0,1,6562.0,6562.0
EDMA,AGB,medium_airport,Augsburg Airport,DE,48.425278,10.931667,1516.0,2,5230.0,4277.5
EDMO,OBF,medium_airport,Oberpfaffenhofen Airport,DE,48.081402,11.2831,1947.0,1,7500.0,7500.0
EDNY,FDH,medium_airport,Friedrichshafen Airport,DE,47.671299,9.51149,1367.0,1,7729.0,7729.0
EDOP,SZW,medium_airport,Schwerin Parchim Airport,DE,53.426998,11.7834,166.0,1,9843.0,9843.0
EDQA,,medium_airport,Airport Bamberg-Breitenau,DE,49.920403,10.914233,811.0,2,4111.0,3942.0
EDQD,BYU,medium_airport,Bayreuth Airport,DE,49.985001,11.64,1601.0,1,3550.0,3550.0
EDQM,HOQ,medium_airport,Hof-Plauen Airport,DE,50.288612,11.856389,1959.0,1,4856.0,4856.0
EDSB,FKB,medium_airport,Karlsruhe Baden-Baden Airport,DE,48.7794,8.0805,408.0,1,9787.0,9787.0
EDTD,,medium_airport,Flugplatz Donaueschingen-Villingen,DE,47.973331,8.522222,2231.0,1,4232.0,4232.0
EDTL,LHA,medium_airport,Lahr Airport,DE,48.3693008423,7.82772016525,511.0,1,9842.0,9842.0
EDTY,,medium_airport,Adolf Würth Airport,DE,49.1183319092,9.783888816829998,1299.0,2,5053.0,3756.5
EDVE,BWE,medium_airport,Braunschweig-Wolfsburg Airport,DE,52.319199,10.5561,295.0,2,7546.0,5249.5
EDVK,KSF,medium_airport,Kassel-Calden Airport,DE,51.417273,9.384967,820.0,3,8202.0,5140.0
EDXW,GWT,medium_airport,Westerland Sylt Airport,DE,54.9132,8.34047,51.0,2,6955.0,6259.5
EEEI,,medium_airport,Ämari Air Base,EE,59.26029968261719,24.208499908447266,65.0,1,6562.0,6562.0
EEKA,KDL,medium_airport,Kärdla Airport,EE,58.99079895019531,22.830699920654297,18.0,1,4987.0,4987.0
EEKE,URE,medium_airport,Kuressaare Airport,EE,58.22990036010742,22.50950050354004,14.0,2,4980.0,3800.5
EEPU,EPU,medium_airport,Pärnu Airport,EE,58.41899871826172,24.47279930114746,47.0,1,6463.0,6463.0
EES,EES,medium_airport,Berenice International Airport / Banas Cape Air Base,EG,23.989802,35.465047,108.0,3,9930.0,9766.666666666666
EETN,TLL,large_airport,Lennart Meri Tallinn Airport,EE,59.41329956049999,24.8327999115,131.0,1,11417.0,11417.0
EETU,TAY,medium_airport,Tartu Airport,EE,58.307499,26.690399,220.0,1,5905.0,5905.0
EFET,ENF,medium_airport,Enontekio Airport,FI,68.362602233887,23.424299240112,1005.0,1,6565.0,6565.0
EFHA,KEV,medium_airport,Halli Airport,FI,61.856039,24.786686,479.0,1,8533.0,8533.0
EFHK,HEL,large_airport,Helsinki Vantaa Airport,FI,60.3172,24.963301,179.0,3,11286.0,10281.0
EFIT,KTQ,medium_airport,Kitee Airport,FI,62.1661,30.073601,364.0,1,4921.0,4921.0
EFIV,IVL,medium_airport,Ivalo Airport,FI,68.607299804688,27.405300140381,481.0,2,8199.0,5412.0
EFJO,JOE,medium_airport,Joensuu Airport,FI,62.662899,29.6075,398.0,2,8202.0,6069.5
EFJY,JYV,medium_airport,Jyväskylä Airport,FI,62.399502,25.678301,459.0,1,8533.0,8533.0
EFKA,KAU,medium_airport,Kauhava Airfield,FI,63.127102,23.051399,151.0,1,8858.0,8858.0
EFKE,KEM,medium_airport,Kemi-Tornio Airport,FI,65.778701782227,24.582099914551,61.0,1,8212.0,8212.0
EFKI,KAJ,medium_airport,Kajaani Airport,FI,64.2855,27.6924,483.0,1,8199.0,8199.0
EFKJ,KHJ,medium_airport,Kauhajoki Airfield,FI,62.463212,22.390817,407.0,1,3806.0,3806.0
EFKK,KOK,medium_airport,Kokkola-Pietarsaari Airport,FI,63.721199,23.143101,84.0,2,8202.0,5249.5
EFKS,KAO,medium_airport,Kuusamo Airport,FI,65.987602,29.239401,866.0,1,8202.0,8202.0
EFKT,KTT,medium_airport,Kittilä Airport,FI,67.700996398926,24.846799850464,644.0,1,8202.0,8202.0
EFKU,KUO,medium_airport,Kuopio Airport,FI,63.007099,27.7978,323.0,2,9186.0,7053.5
EFLP,LPP,medium_airport,Lappeenranta Airport,FI,61.044601,28.144743,349.0,1,8202.0,8202.0
EFMA,MHQ,medium_airport,Mariehamn Airport,FI,60.1222,19.898199,17.0,1,6243.0,6243.0
EFMI,MIK,medium_airport,Mikkeli Airport,FI,61.6866,27.201799,329.0,1,5584.0,5584.0
EFOU,OUL,medium_airport,Oulu Airport,FI,64.930099,25.354601,47.0,1,8205.0,8205.0
EFPO,POR,medium_airport,Pori Airport,FI,61.4617,21.799999,44.0,2,7713.0,5170.5
EFPR,,medium_airport,Helsinki East-Redstone Airport,FI,60.479167,26.593889,72.0,1,3280.0,3280.0
EFRO,RVN,medium_airport,Rovaniemi Airport,FI,66.564796447754,25.830400466919,642.0,1,9849.0,9849.0
EFSA,SVL,medium_airport,Savonlinna Airport,FI,61.9431,28.945101,311.0,1,7546.0,7546.0
EFSI,SJY,medium_airport,Seinäjoki Airport,FI,62.692101,22.8323,302.0,1,6562.0,6562.0
EFSO,SOT,medium_airport,Sodankyla Airport,FI,67.3949966431,26.6191005707,602.0,1,4921.0,4921.0
EFTP,TMP,medium_airport,Tampere-Pirkkala Airport,FI,61.414101,23.604401,390.0,1,8858.0,8858.0
EFTU,TKU,medium_airport,Turku Airport,FI,60.514099,22.2628,161.0,1,8202.0,8202.0
EFUT,UTI,medium_airport,Utti Air Base,FI,60.8964,26.9384,339.0,1,6562.0,6562.0
EFVA,VAA,medium_airport,Vaasa Airport,FI,63.050701,21.762199,19.0,2,8727.0,6824.0
EFVR,VRK,medium_airport,Varkaus Airport,FI,62.171101,27.868601,286.0,1,6562.0,6562.0
EFYL,YLI,medium_airport,Ylivieska Airfield,FI,64.054722,24.725278,252.0,1,4921.0,4921.0
EGAA,BFS,large_airport,Belfast International Airport,GB,54.6575012207,-6.21582984924,268.0,2,9121.0,7662.5
EGAB,ENK,medium_airport,Enniskillen/St Angelo Airport,GB,54.398899,-7.65167,155.0,1,4350.0,4350.0
EGAC,BHD,medium_airport,George Best Belfast City Airport,GB,54.618099,-5.8725,15.0,1,6001.0,6001.0
EGAE,LDY,medium_airport,City of Derry Airport,GB,55.04280090332031,-7.161109924316406,22.0,2,6460.0,5207.5
EGBB,BHX,large_airport,Birmingham International Airport,GB,52.4538993835,-1.74802994728,327.0,1,10013.0,10013.0
EGBE,CVT,medium_airport,Coventry Airport,GB,52.3697013855,-1.47971999645,267.0,1,5988.0,5988.0
EGBJ,GLO,medium_airport,Gloucestershire Airport,GB,51.89419937133789,-2.167220115661621,101.0,3,4656.0,3499.6666666666665
EGBN,NQT,medium_airport,Nottingham Airport,GB,52.919998,-1.07917,138.0,2,3445.0,3069.0
EGCC,MAN,large_airport,Manchester Airport,GB,53.349375,-2.279521,257.0,2,10007.0,10003.5
EGDC,,medium_airport,Royal Marines Base Chivenor Airport,GB,51.08720016479492,-4.150340080261231,27.0,1,6014.0,6014.0
EGDM,,medium_airport,MoD Boscombe Down Airport,GB,51.152199,-1.74741,407.0,3,10538.0,6443.0
EGDR,,medium_airport,RNAS Culdrose,GB,50.08610153198242,-5.255710124969482,267.0,3,6006.0,4275.333333333333
EGDX,,medium_airport,St. Athan Airport,GB,51.4048,-3.43575,163.0,1,5997.0,5997.0
EGDY,YEO,medium_airport,RNAS Yeovilton,GB,51.0093994140625,-2.638819932937622,75.0,2,7580.0,6188.5
EGEC,CAL,medium_airport,Campbeltown Airport,GB,55.437198638916016,-5.686389923095703,42.0,1,5741.0,5741.0
EGED,EOI,medium_airport,Eday Airport,GB,59.19060134887695,-2.7722198963165283,10.0,2,1896.0,1812.5
EGFE,HAW,medium_airport,Haverfordwest Airport,GB,51.833099365234375,-4.9611101150512695,159.0,2,5000.0,4206.0
EGFF,CWL,medium_airport,Cardiff International Airport,GB,51.396702,-3.34333,220.0,1,7723.0,7723.0
EGFH,SWS,medium_airport,Swansea Airport,GB,51.60530090332031,-4.0678300857543945,299.0,2,4429.0,3620.5
EGGD,BRS,medium_airport,Bristol Airport,GB,51.382702,-2.71909,622.0,1,6597.0,6597.0
EGGP,LPL,medium_airport,Liverpool John Lennon Airport,GB,53.333599,-2.84972,80.0,1,7497.0,7497.0
EGGW,LTN,large_airport,London Luton Airport,GB,51.874698638916016,-0.3683330118656158,526.0,1,7093.0,7093.0
EGHH,BOH,medium_airport,Bournemouth Airport,GB,50.779999,-1.8425,38.0,1,7451.0,7451.0
EGHI,SOU,medium_airport,Southampton Airport,GB,50.950298,-1.3568,44.0,1,5653.0,5653.0
EGHL,,medium_airport,Lasham Airfield,GB,51.187199,-1.0335,618.0,1,5896.0,5896.0
EGHQ,NQY,medium_airport,Cornwall Airport Newquay,GB,50.440601,-4.99541,390.0,1,9006.0,9006.0
EGJA,ACI,medium_airport,Alderney Airport,GG,49.706104,-2.21472,290.0,3,2887.0,2306.3333333333335
EGJB,GCI,medium_airport,Guernsey Airport,GG,49.435001,-2.60197,336.0,1,5194.0,5194.0
EGJJ,JER,medium_airport,Jersey Airport,JE,49.20790100097656,-2.195509910583496,277.0,1,5597.0,5597.0
EGKA,ESH,medium_airport,Shoreham Airport,GB,50.835602,-0.297222,7.0,3,3399.0,2529.3333333333335
EGKB,BQH,medium_airport,London Biggin Hill Airport,GB,51.33079910279999,0.0324999988079,598.0,2,5912.0,4255.0
EGKK,LGW,large_airport,London Gatwick Airport,GB,51.148102,-0.190278,202.0,2,10879.0,9647.0
EGLC,LCY,medium_airport,London City Airport,GB,51.505299,0.055278,19.0,1,4948.0,4948.0
EGLF,FAB,medium_airport,Farnborough Airport,GB,51.2757987976,-0.776332974434,238.0,1,8005.0,8005.0
EGLK,BBS,medium_airport,Blackbushe Airport,GB,51.32389831542969,-0.8475000262260437,325.0,1,4380.0,4380.0
EGLL,LHR,large_airport,London Heathrow Airport,GB,51.4706,-0.461941,83.0,2,12799.0,12400.0
EGMC,SEN,medium_airport,Southend Airport,GB,51.5714,0.695556,49.0,1,6089.0,6089.0
EGMD,LYX,medium_airport,Lydd Airport,GB,50.9561,0.939167,13.0,2,4938.0,3601.0
EGNC,CAX,medium_airport,Carlisle Airport,GB,54.9375,-2.8091700077056885,190.0,3,6000.0,4320.333333333333
EGNH,BLK,medium_airport,Blackpool International Airport,GB,53.77170181274414,-3.0286099910736084,34.0,3,6132.0,4009.0
EGNJ,HUY,medium_airport,Humberside Airport,GB,53.57440185546875,-0.350832998752594,121.0,2,7205.0,5331.5
EGNL,BWF,medium_airport,Barrow Walney Island Airport,GB,54.1286111,-3.2675,173.0,3,3438.0,2694.0
EGNM,LBA,medium_airport,Leeds Bradford Airport,GB,53.865898,-1.66057,681.0,1,7381.0,7381.0
EGNO,WRT,medium_airport,Warton Aerodrome,GB,53.745098,-2.88306,55.0,2,7946.0,6067.5
EGNR,CEG,medium_airport,Hawarden Airport,GB,53.178101,-2.97778,45.0,1,6702.0,6702.0
EGNS,IOM,medium_airport,Isle of Man Airport,IM,54.083302,-4.62389,52.0,3,5751.0,4216.0
EGNT,NCL,medium_airport,Newcastle Airport,GB,55.037498,-1.69167,266.0,1,7642.0,7642.0
EGNV,MME,medium_airport,Teesside International Airport,GB,54.509201,-1.42941,120.0,1,7516.0,7516.0
EGNX,EMA,medium_airport,East Midlands Airport,GB,52.8311,-1.32806,306.0,1,9491.0,9491.0
EGOS,,medium_airport,RAF Shawbury,GB,52.79819869995117,-2.668040037155152,249.0,2,6018.0,5270.5
EGOV,VLY,medium_airport,Anglesey Airport,GB,53.2481002808,-4.53533983231,37.0,3,7513.0,5030.0
EGPA,KOI,medium_airport,Kirkwall Airport,GB,58.957801818847656,-2.9049999713897705,50.0,3,4685.0,3599.0
EGPB,LSI,medium_airport,Sumburgh Airport,GB,59.87889862060547,-1.295560002326965,20.0,3,4921.0,3801.0
EGPC,WIC,medium_airport,Wick Airport,GB,58.45890045166016,-3.09306001663208,126.0,2,5988.0,4693.5
EGPD,ABZ,medium_airport,Aberdeen Dyce Airport,GB,57.2019,-2.19778,215.0,4,6407.0,2829.5
EGPE,INV,medium_airport,Inverness Airport,GB,57.54249954223633,-4.047500133514404,31.0,2,6191.0,4244.0
EGPF,GLA,large_airport,Glasgow International Airport,GB,55.871899,-4.43306,26.0,2,8743.0,6182.5
EGPH,EDI,large_airport,Edinburgh Airport,GB,55.950145,-3.372288,135.0,3,8386.0,5579.0
EGPI,ILY,medium_airport,Islay Airport,GB,55.68190002441406,-6.256669998168945,56.0,2,5069.0,3576.0
EGPK,PIK,medium_airport,Glasgow Prestwick Airport,GB,55.502003,-4.587019,65.0,2,9797.0,8023.5
EGPL,BEB,medium_airport,Benbecula Airport,GB,57.48109817504883,-7.362780094146728,19.0,2,6024.0,5013.5
EGPN,DND,medium_airport,Dundee Airport,GB,56.45249938964844,-3.025830030441284,17.0,1,4593.0,4593.0
EGPO,SYY,medium_airport,Stornoway Airport,GB,58.215599,-6.33111,26.0,2,7218.0,5249.5
EGPR,BRR,medium_airport,Barra Airport,GB,57.0228,-7.44306,5.0,3,2776.0,2542.6666666666665
EGPU,TRE,medium_airport,Tiree Airport,GB,56.49919891357422,-6.869170188903809,38.0,3,4600.0,3296.0
EGQL,ADX,medium_airport,Leuchars Station Airfield,GB,56.37398,-2.868862,38.0,2,8491.0,6647.0
EGQS,LMO,medium_airport,RAF Lossiemouth,GB,57.7052001953125,-3.339169979095459,42.0,2,9091.0,7578.5
EGSC,CBG,medium_airport,Cambridge Airport,GB,52.205002,0.175,47.0,3,6447.0,3896.3333333333335
EGSH,NWI,medium_airport,Norwich Airport,GB,52.6758,1.28278,117.0,2,6041.0,5097.5
EGSS,STN,large_airport,London Stansted Airport,GB,51.8849983215,0.234999999404,348.0,1,10003.0,10003.0
EGTC,,medium_airport,Cranfield Airport,GB,52.072201,-0.616667,360.0,2,5902.0,3967.5
EGTE,EXT,medium_airport,Exeter International Airport,GB,50.734402,-3.41389,102.0,2,6834.0,5613.5
EGTK,OXF,medium_airport,Oxford (Kidlington) Airport,GB,51.8368988037,-1.32000005245,270.0,4,5092.0,3339.75
EGUB,BEX,medium_airport,RAF Benson,GB,51.6164016724,-1.09582996368,226.0,2,5981.0,5381.5
EGUL,LKZ,medium_airport,RAF Lakenheath,GB,52.409302,0.561,32.0,1,9000.0,9000.0
EGUN,MHZ,medium_airport,RAF Mildenhall,GB,52.3619,0.486406,33.0,1,9221.0,9221.0
EGUW,,medium_airport,Wattisham Airfield,GB,52.127451,0.956189,284.0,1,7953.0,7953.0
EGUY,QUY,medium_airport,RAF Wyton,GB,52.3572006226,-0.107832998037,135.0,2,8255.0,5377.5
EGVA,FFD,medium_airport,RAF Fairford,GB,51.682201,-1.79003,286.0,1,9994.0,9994.0
EGVN,BZZ,medium_airport,RAF Brize Norton,GB,51.75,-1.58362,288.0,1,10007.0,10007.0
EGVO,ODH,medium_airport,RAF Odiham,GB,51.2341003418,-0.94282501936,405.0,1,6030.0,6030.0
EGWC,,medium_airport,DCAE Cosford Air Base,GB,52.639999,-2.30558,272.0,1,3890.0,3890.0
EGWU,NHT,medium_airport,RAF Northolt,GB,51.5530014038,-0.418166995049,124.0,1,5545.0,5545.0
EGXC,QCY,medium_airport,RAF Coningsby,GB,53.0929985046,-0.166014000773,25.0,1,9003.0,9003.0
EGXD,,medium_airport,RAF Dishforth,GB,54.1371994019,-1.42025005817,117.0,2,6096.0,5282.5
EGXE,,medium_airport,RAF Leeming Air Base,GB,54.2924,-1.5354,132.0,1,7520.0,7520.0
EGXG,,medium_airport,Leeds East Airport,GB,53.834301,-1.1955,29.0,2,6158.0,5812.0
EGXH,BEQ,medium_airport,RAF Honington,GB,52.34260177612305,0.7729390263557434,174.0,1,9012.0,9012.0
EGXP,SQZ,medium_airport,RAF Scampton,GB,53.307800293,-0.550832986832,202.0,1,8990.0,8990.0
EGXT,,medium_airport,RAF Wittering,GB,52.612598,-0.476453,273.0,1,9052.0,9052.0
EGXU,HRT,medium_airport,RAF Linton-On-Ouse,GB,54.0489006042,-1.2527500391,53.0,2,6020.0,5207.0
EGXW,WTN,medium_airport,RAF Waddington,GB,53.1661987305,-0.523810982704,231.0,1,9000.0,9000.0
EGXZ,,medium_airport,RAF Topcliffe,GB,54.2055015564,-1.3820899725,92.0,2,5948.0,5018.0
EGYD,,medium_airport,RAF Cranwell,GB,53.0303001404,-0.48324200511,218.0,3,6831.0,4662.666666666667
EGYE,,medium_airport,RAF Barkston Heath,GB,52.9622001648,-0.561625003815,367.0,3,5722.0,4174.333333333333
EGYM,KNF,medium_airport,RAF Marham,GB,52.648395,0.550692,75.0,2,9140.0,7613.0
EGYP,MPN,medium_airport,Mount Pleasant Airport,FK,-51.82279968261719,-58.44720077514648,244.0,2,8497.0,6750.0
EHAM,AMS,large_airport,Amsterdam Airport Schiphol,NL,52.308601,4.76389,-11.0,6,12467.0,10614.5
EHBD,,medium_airport,Budel Airfield Kempen,NL,51.255299,5.60139,114.0,2,3934.0,2951.5
EHBK,MST,medium_airport,Maastricht Aachen Airport,NL,50.911701,5.77014,375.0,1,9022.0,9022.0
EHDL,,medium_airport,Deelen Air Base,NL,52.0606,5.87306,158.0,1,3431.0,3431.0
EHDP,,medium_airport,De Peel Air Base,NL,51.51729965209961,5.855720043182373,98.0,1,9768.0,9768.0
EHEH,EIN,large_airport,Eindhoven Airport,NL,51.4500999451,5.37452983856,74.0,1,9843.0,9843.0
EHGG,GRQ,medium_airport,Eelde Airport,NL,53.1197013855,6.57944011688,17.0,2,8202.0,6562.0
EHGR,GLZ,medium_airport,Gilze Rijen Air Base,NL,51.56740188598633,4.931829929351807,49.0,2,9081.0,7815.0
EHKD,DHR,medium_airport,De Kooy Airport,NL,52.92340087890625,4.780620098114014,3.0,1,4183.0,4183.0
EHLE,LEY,medium_airport,Lelystad Airport,NL,52.4603,5.52722,-13.0,2,8858.0,6676.5
EHLW,LWR,medium_airport,Leeuwarden Air Base,NL,53.22859954833984,5.760560035705566,3.0,2,8045.0,7303.5
EHRD,RTM,medium_airport,Rotterdam The Hague Airport,NL,51.956902,4.43722,-15.0,1,7218.0,7218.0
EHTW,ENS,medium_airport,Twente Airport,NL,52.275833,6.889167,114.0,2,9801.0,8179.5
EHVK,UDE,medium_airport,Volkel Air Base,NL,51.657222,5.707778,72.0,2,9931.0,9926.5
EHWO,WOE,medium_airport,Woensdrecht Air Base,NL,51.4491,4.34203,63.0,1,8015.0,8015.0
EICK,ORK,medium_airport,Cork Airport,IE,51.841301,-8.49111,502.0,2,6998.0,5648.0
EICM,GWY,medium_airport,Galway Airport,IE,53.300201416015625,-8.941590309143066,81.0,1,4003.0,4003.0
EIDL,CFN,medium_airport,Donegal Airport,IE,55.0442008972168,-8.340999603271484,30.0,1,4908.0,4908.0
EIDW,DUB,large_airport,Dublin Airport,IE,53.428713,-6.262121,242.0,4,10203.0,7511.5
EIKN,NOC,medium_airport,Ireland West Knock Airport,IE,53.910301,-8.81849,665.0,1,7546.0,7546.0
EIKY,KIR,medium_airport,Kerry Airport,IE,52.180901,-9.52378,112.0,2,6562.0,5298.5
EIME,,medium_airport,Casement Air Base,IE,53.301700592,-6.451330184940001,319.0,2,6001.0,5400.5
EINN,SNN,large_airport,Shannon Airport,IE,52.702,-8.92482,46.0,1,10495.0,10495.0
EISG,SXL,medium_airport,Sligo Airport,IE,54.280200958252,-8.5992097854614,11.0,1,3517.0,3517.0
EIWF,WAT,medium_airport,Waterford Airport,IE,52.187198638916016,-7.086959838867188,119.0,1,4701.0,4701.0
EIWT,,medium_airport,Weston Airfield,IE,53.3522,-6.48611,150.0,1,3038.0,3038.0
EKAH,AAR,medium_airport,Aarhus Airport,DK,56.303331,10.618286,82.0,2,9111.0,8988.0
EKBI,BLL,large_airport,Billund Airport,DK,55.7402992249,9.15178012848,247.0,1,10172.0,10172.0
EKCH,CPH,large_airport,Copenhagen Kastrup Airport,DK,55.617900848389,12.656000137329,17.0,3,11811.0,10903.333333333334
EKEB,EBJ,medium_airport,Esbjerg Airport,DK,55.525902,8.5534,97.0,1,8527.0,8527.0
EKKA,KRP,medium_airport,Karup Airport,DK,56.29750061035156,9.124629974365234,170.0,5,9816.0,5465.2
EKMB,MRW,medium_airport,Lolland Falster Maribo Airport,DK,54.699299,11.4401,16.0,1,3937.0,3937.0
EKOD,ODE,medium_airport,Odense Airport,DK,55.47669982910156,10.330900192260742,56.0,2,6053.0,4166.5
EKRK,RKE,medium_airport,Copenhagen Roskilde Airport,DK,55.58560180664063,12.131400108337402,146.0,2,5709.0,5315.0
EKRN,RNN,medium_airport,Bornholm Airport,DK,55.06330108642578,14.759599685668944,52.0,1,6568.0,6568.0
EKSB,SGD,medium_airport,Sønderborg Airport,DK,54.96440124511719,9.791729927062988,24.0,1,5895.0,5895.0
EKSN,CNL,medium_airport,Sindal Airport,DK,57.503502,10.2294,92.0,1,3934.0,3934.0
EKSP,SKS,medium_airport,Skrydstrup Air Base,DK,55.221048,9.26702,141.0,2,9863.0,9806.5
EKSV,SQW,medium_airport,Skive Airport,DK,56.550201416015625,9.172980308532717,74.0,1,3933.0,3933.0
EKTS,TED,medium_airport,Thisted Airport,DK,57.06880187988281,8.705220222473145,23.0,1,5249.0,5249.0
EKVD,,medium_airport,Kolding Vamdrup Airfield,DK,55.436298,9.33092,143.0,2,3301.0,2805.5
EKVG,FAE,medium_airport,Vágar Airport,FO,62.063256,-7.275782,280.0,1,5902.0,5902.0
EKVJ,STA,medium_airport,Stauning Airport,DK,55.9901008605957,8.353910446166992,17.0,1,4757.0,4757.0
EKYT,AAL,medium_airport,Aalborg Airport,DK,57.092759,9.849243,10.0,2,8707.0,8535.0
ELLX,LUX,large_airport,Luxembourg-Findel International Airport,LU,49.6233333,6.2044444,1234.0,1,13130.0,13130.0
ENAL,AES,medium_airport,"Ålesund Airport, Vigra",NO,62.5625,6.1197,69.0,1,7592.0,7592.0
ENAN,ANX,medium_airport,"Andøya Airport, Andenes",NO,69.292503,16.144199,43.0,2,8097.0,6791.5
ENAT,ALF,medium_airport,Alta Airport,NO,69.976097106934,23.371700286865,9.0,1,7165.0,7165.0
ENBN,BNN,medium_airport,"Brønnøysund Airport, Brønnøy",NO,65.461098,12.2175,25.0,1,3937.0,3937.0
ENBO,BOO,medium_airport,Bodø Airport,NO,67.269203,14.3653,42.0,1,11136.0,11136.0
ENBR,BGO,large_airport,"Bergen Airport, Flesland",NO,60.2934,5.21814,170.0,1,9810.0,9810.0
ENBS,BJF,medium_airport,Båtsfjord Airport,NO,70.60050201416,29.691400527954,490.0,1,3281.0,3281.0
ENBV,BVG,medium_airport,Berlevåg Airport,NO,70.871399,29.034201,42.0,1,3372.0,3372.0
ENCN,KRS,medium_airport,"Kristiansand Airport, Kjevik",NO,58.204201,8.08537,57.0,1,6660.0,6660.0
ENDU,BDU,medium_airport,Bardufoss Airport,NO,69.055801391602,18.540399551392,252.0,1,8015.0,8015.0
ENEN,,medium_airport,Engeløy Airport,NO,67.967222,14.9925,10.0,1,1969.0,1969.0
ENEV,EVE,medium_airport,"Harstad/Narvik Airport, Evenes",NO,68.491302490234,16.678100585938,84.0,1,9236.0,9236.0
ENFG,VDB,medium_airport,"Fagernes Airport, Leirin",NO,61.015598,9.28806,2697.0,1,6722.0,6722.0
ENFL,FRO,medium_airport,Florø Airport,NO,61.583599090576,5.0247201919556,37.0,1,4144.0,4144.0
ENGM,OSL,large_airport,"Oslo Airport, Gardermoen",NO,60.193901,11.1004,681.0,2,11811.0,10744.5
ENHD,HAU,medium_airport,"Haugesund Airport, Karmøy",NO,59.345299,5.20836,86.0,1,6957.0,6957.0
ENHF,HFT,medium_airport,Hammerfest Airport,NO,70.679702758789,23.668600082397,266.0,1,3061.0,3061.0
ENHV,HVG,medium_airport,"Honningsvåg Airport, Valan",NO,71.009697,25.983601,44.0,1,2625.0,2625.0
ENKB,KSU,medium_airport,"Kristiansund Airport, Kvernberget",NO,63.111801,7.82452,204.0,1,7841.0,7841.0
ENKR,KKN,medium_airport,"Kirkenes Airport, Høybuktmoen",NO,69.7258,29.8913,283.0,1,6939.0,6939.0
ENLK,LKN,medium_airport,Leknes Airport,NO,68.152496337891,13.609399795532,78.0,1,2881.0,2881.0
ENMH,MEH,medium_airport,Mehamn Airport,NO,71.02970123291,27.826700210571,39.0,1,2887.0,2887.0
ENML,MOL,medium_airport,"Molde Airport, Årø",NO,62.744701,7.2625,10.0,1,6922.0,6922.0
ENMS,MJF,medium_airport,"Mosjøen Airport, Kjærstad",NO,65.783997,13.2149,237.0,1,3015.0,3015.0
ENNA,LKL,medium_airport,"Lakselv Airport, Banak",NO,70.068802,24.973499,25.0,1,9147.0,9147.0
ENNO,NTB,medium_airport,Notodden Airport,NO,59.565701,9.21222,63.0,1,5745.0,5745.0
ENOL,OLA,medium_airport,Ørland Airport,NO,63.69889831542969,9.604000091552734,28.0,1,8904.0,8904.0
ENOV,HOV,medium_airport,"Ørsta-Volda Airport, Hovden",NO,62.180000305176,6.0741000175476,243.0,1,3510.0,3510.0
ENRA,MQN,medium_airport,"Mo i Rana Airport, Røssvoll",NO,66.363899230957,14.301400184631,229.0,1,2759.0,2759.0
ENRM,RVK,medium_airport,"Rørvik Airport, Ryum",NO,64.838302612305,11.14610004425,14.0,1,2887.0,2887.0
ENRO,RRS,medium_airport,Røros Airport,NO,62.578399658203,11.342300415039,2054.0,1,5643.0,5643.0
ENRY,RYG,medium_airport,"Moss Airport, Rygge",NO,59.378817,10.785439,174.0,1,8012.0,8012.0
ENSB,LYR,medium_airport,"Svalbard Airport, Longyear",NO,78.246101379395,15.465600013733,88.0,1,7608.0,7608.0
ENSH,SVJ,medium_airport,"Svolvær Airport, Helle",NO,68.243301,14.6692,27.0,1,3104.0,3104.0
ENSK,SKN,medium_airport,"Stokmarknes Airport, Skagen",NO,68.578827,15.033417,11.0,1,3031.0,3031.0
ENSN,SKE,medium_airport,Skien Airport,NO,59.185001373291016,9.566940307617188,463.0,1,4596.0,4596.0
ENSO,SRP,medium_airport,"Stord Airport, Sørstokken",NO,59.791901,5.34085,160.0,1,3937.0,3937.0
ENSR,SOJ,medium_airport,Sørkjosen Airport,NO,69.786796569824,20.959400177002,16.0,1,3015.0,3015.0
ENSS,VAW,medium_airport,"Vardø Airport, Svartnes",NO,70.355400085449,31.044900894165,42.0,1,3707.0,3707.0
ENST,SSJ,medium_airport,"Sandnessjøen Airport, Stokka",NO,65.956802,12.4689,56.0,1,3563.0,3563.0
ENTC,TOS,large_airport,"Tromsø Airport, Langnes",NO,69.683296,18.9189,31.0,1,7848.0,7848.0
ENTO,TRF,medium_airport,"Sandefjord Airport, Torp",NO,59.1866989136,10.258600235,286.0,1,9675.0,9675.0
ENVA,TRD,large_airport,"Trondheim Airport, Værnes",NO,63.457802,10.924,56.0,3,9052.0,3980.0
ENVD,VDS,medium_airport,Vadsø Airport,NO,70.065299987793,29.844699859619,127.0,1,3271.0,3271.0
ENY,ENY,medium_airport,Yan'an Nanniwan Airport,CN,36.479413,109.464083,,1,9843.0,9843.0
ENZV,SVG,large_airport,"Stavanger Airport, Sola",NO,58.876701,5.63778,29.0,2,9369.0,8702.0
EPBY,BZG,medium_airport,Bydgoszcz Ignacy Jan Paderewski Airport,PL,53.096802,17.977699,235.0,1,8202.0,8202.0
EPCE,,medium_airport,Cewice Air Base,PL,54.416,17.7633,495.0,1,8214.0,8214.0
EPDE,,medium_airport,Deblin Military Air Base,PL,51.551399231,21.8936004639,392.0,1,8202.0,8202.0
EPGD,GDN,large_airport,Gdańsk Lech Wałęsa Airport,PL,54.37760162353516,18.46619987487793,489.0,1,9186.0,9186.0
EPIR,,medium_airport,Inowroclaw Military Air Base,PL,52.8293991089,18.3306007385,259.0,1,6561.0,6561.0
EPKK,KRK,large_airport,Kraków John Paul II International Airport,PL,50.077702,19.7848,791.0,1,8366.0,8366.0
EPKS,,medium_airport,Krzesiny Military Air Base,PL,52.3316993713,16.9664001465,265.0,2,8202.0,7026.0
EPKT,KTW,medium_airport,Katowice International Airport,PL,50.4743,19.08,995.0,1,10499.0,10499.0
EPLB,LUZ,medium_airport,Lublin Airport,PL,51.240278,22.713611,633.0,1,8268.0,8268.0
EPLK,,medium_airport,Lask Military Air Base,PL,51.551700592,19.1791000366,633.0,1,8200.0,8200.0
EPLL,LCJ,medium_airport,Łódź Władysław Reymont Airport,PL,51.7219009399,19.3980998993,604.0,2,8202.0,5249.0
EPLS,,medium_airport,Leszno-Strzyzewice Airport,PL,51.834999,16.5219,310.0,3,4331.0,3237.0
EPMB,,medium_airport,Malbork Military Air Base,PL,54.0269012451,19.1341991425,16.0,1,8202.0,8202.0
EPMI,,medium_airport,Miroslawiec Military Air Base,PL,53.3950996399,16.0827999115,459.0,1,8216.0,8216.0
EPMM,,medium_airport,Minsk Mazowiecki Military Air Base,PL,52.1954994202,21.6558990479,604.0,1,8245.0,8245.0
EPMO,WMI,medium_airport,Modlin Airport,PL,52.451099,20.6518,341.0,1,8202.0,8202.0
EPOK,,medium_airport,Oksywie Military Air Base,PL,54.5797,18.5172,144.0,2,8190.0,5040.0
EPPO,POZ,medium_airport,Poznań-Ławica Airport,PL,52.421001,16.8263,308.0,2,8215.0,5255.5
EPPW,,medium_airport,Powidz Military Air Base,PL,52.379398,17.853901,371.0,2,11565.0,10252.5
EPRA,RDO,medium_airport,Radom Airport,PL,51.389198,21.213301,610.0,1,6562.0,6562.0
EPRZ,RZE,medium_airport,Rzeszów-Jasionka Airport,PL,50.110001,22.018999,693.0,4,10498.0,5684.75
EPSC,SZZ,medium_airport,"Szczecin-Goleniów ""Solidarność"" Airport",PL,53.584702,14.9022,154.0,1,8202.0,8202.0
EPSN,,medium_airport,Swidwin Military Air Base,PL,53.790599823,15.8262996674,385.0,1,8200.0,8200.0
EPSY,SZY,medium_airport,Olsztyn-Mazury Airport,PL,53.481899,20.9377,463.0,1,8202.0,8202.0
EPTM,,medium_airport,Tomaszow Mazowiecki Military Air Base,PL,51.584400177,20.0977993011,571.0,1,6573.0,6573.0
EPWA,WAW,large_airport,Warsaw Chopin Airport,PL,52.1656990051,20.9671001434,362.0,2,12106.0,10646.0
EPWR,WRO,medium_airport,Copernicus Wrocław Airport,PL,51.102699,16.885799,404.0,1,8212.0,8212.0
EPZG,IEG,medium_airport,Zielona Góra-Babimost Airport,PL,52.1385002136,15.7986001968,194.0,1,8202.0,8202.0
ESCF,,medium_airport,Malmen Air Base,SE,58.40230178833008,15.525699615478516,308.0,2,7265.0,6700.0
ESDF,RNB,medium_airport,Ronneby Airport,SE,56.266701,15.265,191.0,1,7648.0,7648.0
ESFR,,medium_airport,Råda Air Base,SE,58.49810028076172,13.053199768066406,230.0,1,6517.0,6517.0
ESGG,GOT,large_airport,Gothenburg-Landvetter Airport,SE,57.662799835205,12.279800415039,506.0,1,10823.0,10823.0
ESGJ,JKG,medium_airport,Jönköping Airport,SE,57.757598876953125,14.068699836730955,741.0,2,7228.0,4598.5
ESGP,GSE,medium_airport,Gothenburg City Airport,SE,57.7747,11.8704,59.0,2,3560.0,3209.0
ESGR,KVB,medium_airport,Skövde Airport,SE,58.45640182495117,13.972700119018556,324.0,1,5696.0,5696.0
ESGT,THN,medium_airport,Trollhättan-Vänersborg Airport,SE,58.31809997558594,12.345000267028809,137.0,1,5610.0,5610.0
ESIB,,medium_airport,Såtenäs Air Base,SE,58.42639923095703,12.714400291442873,181.0,2,7428.0,6885.0
ESKK,KSK,medium_airport,Karlskoga Airport,SE,59.34590148925781,14.49590015411377,400.0,1,4919.0,4919.0
ESKM,MXX,medium_airport,Mora Airport,SE,60.957901,14.5114,634.0,1,5951.0,5951.0
ESKN,NYO,medium_airport,Stockholm Skavsta Airport,SE,58.788601,16.912201,140.0,2,9442.0,8066.0
ESKS,SCR,medium_airport,Scandinavian Mountains Airport,SE,61.158393,12.842503,1608.0,1,8202.0,8202.0
ESMK,KID,medium_airport,Kristianstad Airport,SE,55.92169952392578,14.08549976348877,76.0,1,7267.0,7267.0
ESMQ,KLR,medium_airport,Kalmar Airport,SE,56.685501,16.2876,17.0,2,6726.0,4452.5
ESMS,MMX,medium_airport,Malmö Sturup Airport,SE,55.536305,13.376198,236.0,2,9186.0,5900.5
ESMT,HAD,medium_airport,Halmstad Airport,SE,56.69110107421875,12.820199966430664,101.0,1,7419.0,7419.0
ESMX,VXO,medium_airport,Växjö Kronoberg Airport,SE,56.92910003662109,14.727999687194824,610.0,1,6900.0,6900.0
ESND,EVG,medium_airport,Sveg Airport,SE,62.047798,14.4229,1178.0,1,5579.0,5579.0
ESNG,GEV,medium_airport,Gällivare Airport,SE,67.13240051269531,20.814599990844727,1027.0,1,5623.0,5623.0
ESNK,KRF,medium_airport,Kramfors-Sollefteå Höga Kusten Airport,SE,63.048599,17.7689,34.0,1,6565.0,6565.0
ESNL,LYC,medium_airport,Lycksele Airport,SE,64.548302,18.7162,705.0,1,6564.0,6564.0
ESNN,SDL,medium_airport,Sundsvall-Härnösand Airport,SE,62.528099060058594,17.443899154663086,16.0,1,6857.0,6857.0
ESNO,OER,medium_airport,Örnsköldsvik Airport,SE,63.40829849243164,18.989999771118164,354.0,1,6607.0,6607.0
ESNQ,KRN,medium_airport,Kiruna Airport,SE,67.821998596191,20.336799621582,1508.0,1,8209.0,8209.0
ESNS,SFT,medium_airport,Skellefteå Airport,SE,64.62480163574219,21.07690048217773,157.0,1,8268.0,8268.0
ESNU,UME,medium_airport,Umeå Airport,SE,63.791801452637,20.282800674438,24.0,1,7551.0,7551.0
ESNV,VHM,medium_airport,Vilhelmina South Lapland Airport,SE,64.579102,16.833599,1140.0,1,4928.0,4928.0
ESNX,AJR,medium_airport,Arvidsjaur Airport,SE,65.59030151367188,19.28190040588379,1245.0,1,8201.0,8201.0
ESNY,SOO,medium_airport,Söderhamn Airport,SE,61.26150131225586,17.09910011291504,88.0,2,8281.0,5453.0
ESNZ,OSD,medium_airport,Åre Östersund Airport,SE,63.194400787354,14.50030040741,1233.0,2,8202.0,6118.0
ESOE,ORB,medium_airport,Örebro Airport,SE,59.22370147705078,15.038000106811523,188.0,1,10728.0,10728.0
ESOH,HFS,medium_airport,Hagfors Airport,SE,60.0201,13.5789,474.0,1,4951.0,4951.0
ESOK,KSD,medium_airport,Karlstad Airport,SE,59.4446983337,13.3374004364,352.0,2,8255.0,5047.5
ESOW,VST,medium_airport,Stockholm Västerås Airport,SE,59.58940124511719,16.63360023498535,21.0,1,8468.0,8468.0
ESPA,LLA,medium_airport,Luleå Airport,SE,65.5438,22.122,65.0,1,10990.0,10990.0
ESSA,ARN,large_airport,Stockholm-Arlanda Airport,SE,59.651901245117,17.918600082397,137.0,3,10830.0,9077.666666666666
ESSB,BMA,medium_airport,Stockholm-Bromma Airport,SE,59.354400634765625,17.941699981689453,47.0,1,5472.0,5472.0
ESSD,BLE,medium_airport,Dala Airport,SE,60.422001,15.5152,503.0,1,7579.0,7579.0
ESSK,GVX,medium_airport,Gävle Sandviken Airport,SE,60.593299865722656,16.951400756835938,224.0,1,6562.0,6562.0
ESSL,LPI,medium_airport,Linköping City Airport,SE,58.4062004089,15.6805000305,172.0,1,6989.0,6989.0
ESSP,NRK,medium_airport,Norrköping Airport,SE,58.58629989624024,16.250600814819336,32.0,2,7228.0,4588.0
ESST,TYF,medium_airport,Torsby Airport,SE,60.1576,12.9913,393.0,1,5219.0,5219.0
ESSU,EKT,medium_airport,Eskilstuna Airport,SE,59.35110092163086,16.70840072631836,139.0,1,6187.0,6187.0
ESSV,VBY,medium_airport,Visby Airport,SE,57.662799835205,18.346200942993,164.0,2,6562.0,5086.5
ESTA,AGH,medium_airport,Ängelholm-Helsingborg Airport,SE,56.29610061645508,12.847100257873535,68.0,2,6381.0,3497.0
ESTL,,medium_airport,Ljungbyhed Airport,SE,56.082801818847656,13.212499618530272,140.0,4,7449.0,4805.75
ESUD,SQO,medium_airport,Storuman Airport,SE,64.960899,17.6966,915.0,1,7490.0,7490.0
ESUP,PJA,medium_airport,Pajala Airport,SE,67.24559783935547,23.06889915466309,542.0,1,7552.0,7552.0
ESUT,HMV,medium_airport,Hemavan Airport,SE,65.806099,15.0828,1503.0,1,5254.0,5254.0
ETAD,SPM,medium_airport,Spangdahlem Air Base,DE,49.9726982117,6.69250011444,1197.0,1,10007.0,10007.0
ETAR,RMS,medium_airport,Ramstein Air Base,DE,49.436901,7.60028,776.0,2,10498.0,9888.0
ETHB,,medium_airport,Bückeburg Air Base,DE,52.2785,9.08217,230.0,1,6010.0,6010.0
ETHC,,medium_airport,Celle Army Airfield,DE,52.591202,10.0221,129.0,1,6007.0,6007.0
ETHF,FRZ,medium_airport,Fritzlar Army Airfield,DE,51.1146,9.286,1345.0,1,3413.0,3413.0
ETHL,,medium_airport,Laupheim Air Base,DE,48.220299,9.91002,1766.0,2,5400.0,3684.0
ETHN,,medium_airport,Niederstetten Army Air Base,DE,49.391945,9.958889,1339.0,1,3320.0,3320.0
ETHS,,medium_airport,Fassberg Air Base,DE,52.919399,10.185827,245.0,3,8005.0,4199.333333333333
ETIC,,medium_airport,Grafenwohr Army Air Field,DE,49.6987,11.9402,1363.0,1,3300.0,3300.0
ETIH,,medium_airport,Hohenfels Army Airfield,DE,49.216541,11.836064,1455.0,1,2187.0,2187.0
ETMN,FCN,medium_airport,Nordholz Naval Airbase,DE,53.7677001953,8.658499717709999,74.0,1,8002.0,8002.0
ETND,,medium_airport,Diepholz Air Base,DE,52.585556,8.342222,128.0,1,4209.0,4209.0
ETNG,GKE,medium_airport,Geilenkirchen Air Base,DE,50.9608,6.04242,296.0,1,10009.0,10009.0
ETNH,,medium_airport,Hohn Air Base,DE,54.312199,9.53817,39.0,1,8005.0,8005.0
ETNL,RLG,medium_airport,Rostock-Laage Airport,DE,53.9182014465,12.2783002853,138.0,1,8202.0,8202.0
ETNN,,medium_airport,Nörvenich Air Base,DE,50.8312,6.65817,386.0,1,8003.0,8003.0
ETNS,WBG,medium_airport,Schleswig Air Base,DE,54.459301,9.51633,70.0,2,8003.0,7278.5
ETNT,,medium_airport,Wittmundhafen Air Base,DE,53.547798,7.66733,26.0,1,8005.0,8005.0
ETNW,,medium_airport,Wunstorf Air Base,DE,52.457298,9.42717,187.0,3,8199.0,5780.333333333333
ETOU,WIE,medium_airport,Wiesbaden Army Airfield,DE,50.049800872802734,8.325400352478027,461.0,1,7065.0,7065.0
ETSB,,medium_airport,Büchel Air Base,DE,50.1738014221,7.06333017349,1568.0,1,8225.0,8225.0
ETSH,,medium_airport,Holzdorf Air Base,DE,51.767799,13.1677,265.0,1,7936.0,7936.0
ETSI,IGS,medium_airport,Ingolstadt Manching Airport,DE,48.7156982421875,11.534000396728516,1202.0,2,9646.0,8824.0
ETSL,,medium_airport,Lechfeld Air Base,DE,48.185504,10.8612,1822.0,1,8012.0,8012.0
ETSN,,medium_airport,Neuburg AFB,DE,48.710999,11.2115,1249.0,1,8005.0,8005.0
EVDA,DGP,medium_airport,Daugavpils International Airport,LV,55.944721,26.665001,398.0,1,8202.0,8202.0
EVLA,LPX,medium_airport,Liepāja International Airport,LV,56.51750183105469,21.096900939941406,16.0,1,6568.0,6568.0
EVRA,RIX,large_airport,Riga International Airport,LV,56.923599,23.9711,36.0,1,10499.0,10499.0
EVVA,VNT,medium_airport,Ventspils International Airport,LV,57.35779953,21.5442008972,19.0,1,4259.0,4259.0
EYKA,KUN,medium_airport,Kaunas International Airport,LT,54.96390151977539,24.084800720214844,256.0,1,10335.0,10335.0
EYKD,,medium_airport,Kėdainiai Air Base,LT,55.31169891357422,23.95639991760254,171.0,1,6562.0,6562.0
EYPA,PLQ,medium_airport,Palanga International Airport,LT,55.97320175170898,21.093900680541992,33.0,1,7480.0,7480.0
EYPP,PNV,medium_airport,Panevėžys Air Base,LT,55.729400634765625,24.46080017089844,197.0,1,6562.0,6562.0
EYSA,SQQ,medium_airport,Šiauliai International Airport,LT,55.89390182495117,23.395000457763672,443.0,2,11483.0,11122.0
EYSB,,medium_airport,Barysiai Airfield,LT,56.070599,23.5581,270.0,1,3281.0,3281.0
EYVI,VNO,large_airport,Vilnius International Airport,LT,54.634102,25.285801,648.0,1,8251.0,8251.0
FAAB,ALJ,medium_airport,Alexander Bay Airport,ZA,-28.575001,16.5333,98.0,3,6063.0,5461.666666666667
FAAG,AGZ,medium_airport,Aggeneys Airport,ZA,-29.28179931640625,18.813899993896484,2648.0,1,6824.0,6824.0
FABE,BIY,medium_airport,Bisho Airport,ZA,-32.8970985413,27.2791004181,1950.0,1,8202.0,8202.0
FABL,BFN,medium_airport,Bram Fischer International Airport,ZA,-29.092699,26.302401,4457.0,2,8396.0,7799.0
FABR,,medium_airport,Barberton Airport,ZA,-25.716869,30.97518,2250.0,1,3300.0,3300.0
FACT,CPT,large_airport,Cape Town International Airport,ZA,-33.9648017883,18.6016998291,151.0,2,10502.0,8041.5
FAEL,ELS,medium_airport,Ben Schoeman Airport,ZA,-33.035599,27.825899,435.0,2,6362.0,5781.0
FAEO,,medium_airport,Ermelo Airport,ZA,-26.4955997467041,29.979799270629883,5700.0,1,5085.0,5085.0
FAFB,FCB,medium_airport,Ficksburg Sentraoes Airport,ZA,-28.82309913635254,27.908899307250977,5315.0,1,4593.0,4593.0
FAGC,GCJ,medium_airport,Grand Central Airport,ZA,-25.986299514799995,28.1401004791,5325.0,1,6004.0,6004.0
FAGG,GRJ,medium_airport,George Airport,ZA,-34.0056,22.378902,648.0,1,6562.0,6562.0
FAGM,QRA,medium_airport,Rand Airport,ZA,-26.2425,28.151199,5483.0,2,5617.0,5257.5
FAHR,HRS,medium_airport,Harrismith Airport,ZA,-28.23509979248047,29.106199264526367,5585.0,1,3937.0,3937.0
FAKD,KXE,medium_airport,P C Pelser Airport,ZA,-26.8710994720459,26.718000411987305,4444.0,3,4921.0,3718.3333333333335
FAKM,KIM,medium_airport,Kimberley Airport,ZA,-28.802799224900003,24.7651996613,3950.0,2,9843.0,8922.5
FAKN,MQP,medium_airport,Kruger Mpumalanga International Airport,ZA,-25.3831996918,31.1056003571,2829.0,1,10171.0,10171.0
FAKU,KMH,medium_airport,Johan Pienaar Airport,ZA,-27.45669937133789,23.4113998413086,4382.0,1,5578.0,5578.0
FAKZ,KLZ,medium_airport,Kleinsee Airport,ZA,-29.6884002686,17.093999862700002,270.0,1,4921.0,4921.0
FALA,HLA,medium_airport,Lanseria International Airport,ZA,-25.938499,27.9261,4517.0,2,10000.0,9998.0
FALC,LMR,medium_airport,Lime Acres Finsch Mine Airport,ZA,-28.36009979248047,23.43910026550293,4900.0,1,5249.0,5249.0
FALE,DUR,large_airport,King Shaka International Airport,ZA,-29.6144444444,31.1197222222,295.0,1,12139.0,12139.0
FALW,SDB,medium_airport,Langebaanweg Airport,ZA,-32.9688987732,18.1602993011,108.0,4,7689.0,6709.25
FALY,LAY,medium_airport,Ladysmith Airport,ZA,-28.5816993713,29.7497005463,3548.0,1,3937.0,3937.0
FAMD,AAM,medium_airport,Malamala Airport,ZA,-24.818099975585938,31.54459953308105,1124.0,1,4145.0,4145.0
FAMG,MGH,medium_airport,Margate Airport,ZA,-30.8574008942,30.343000412,495.0,1,4495.0,4495.0
FAMM,MBD,medium_airport,Mmabatho International Airport,ZA,-25.798400878900004,25.5480003357,4181.0,1,15157.0,15157.0
FAMN,LLE,medium_airport,Riverside Airport,ZA,-25.4300003052,31.5767002106,1024.0,1,4041.0,4041.0
FAMS,,medium_airport,Morningside Farm Airport,ZA,-25.7045001984,26.9090003967,4251.0,1,5046.0,5046.0
FAMU,MZQ,medium_airport,Mkuze Airport,ZA,-27.626100540161133,32.0443000793457,400.0,1,6059.0,6059.0
FANC,NCS,medium_airport,Newcastle Airport,ZA,-27.7705993652,29.9769001007,4074.0,1,4921.0,4921.0
FAOH,OUH,medium_airport,Oudtshoorn Airport,ZA,-33.6069984436,22.188999176,1063.0,1,5577.0,5577.0
FAOR,JNB,large_airport,OR Tambo International Airport,ZA,-26.1392,28.246,5558.0,2,14495.0,12825.0
FAPE,PLZ,medium_airport,Chief Dawid Stuurman International Airport,ZA,-33.984901,25.6173,226.0,2,6496.0,5999.0
FAPG,PBZ,medium_airport,Plettenberg Bay Airport,ZA,-34.08816,23.328723,465.0,1,4003.0,4003.0
FAPH,PHW,medium_airport,Hendrik Van Eck Airport,ZA,-23.9372005463,31.1553993225,1432.0,1,4491.0,4491.0
FAPI,,medium_airport,Pietersburg Municipal Airport,ZA,-23.9260997772,29.4843997955,4354.0,1,7218.0,7218.0
FAPJ,JOH,medium_airport,Port St Johns Airport,ZA,-31.60612,29.52175,1227.0,1,3610.0,3610.0
FAPM,PZB,medium_airport,Pietermaritzburg Airport,ZA,-29.6490001678,30.3987007141,2423.0,1,5043.0,5043.0
FAPP,PTG,medium_airport,Polokwane International Airport,ZA,-23.845269,29.458615,4076.0,2,8400.0,8006.0
FAPS,PCF,medium_airport,Potchefstroom Airport,ZA,-26.670999527,27.0818996429,4520.0,2,4885.0,4083.0
FAQT,UTW,medium_airport,Queenstown Airport,ZA,-31.92020034790039,26.882200241088867,3637.0,1,3937.0,3937.0
FARB,RCB,medium_airport,Richards Bay Airport,ZA,-28.740999221800003,32.0920982361,109.0,1,4265.0,4265.0
FARG,,medium_airport,Rustenburg Airport,ZA,-25.6443004608,27.2710990906,3700.0,1,4019.0,4019.0
FARS,ROD,medium_airport,Robertson Airport,ZA,-33.812198638916016,19.90279960632324,640.0,2,4921.0,3658.0
FASB,SBU,medium_airport,Springbok Airport,ZA,-29.68930053710937,17.939599990844727,2690.0,1,5213.0,5213.0
FASC,ZEC,medium_airport,Secunda Airport,ZA,-26.52409935,29.1700992584,5250.0,1,3609.0,3609.0
FASD,,medium_airport,Saldanha/Vredenburg Airport,ZA,-32.9641,17.969299,50.0,1,4665.0,4665.0
FASS,SIS,medium_airport,Sishen Airport,ZA,-27.6485996246,22.9993000031,3848.0,1,5709.0,5709.0
FASZ,SZK,medium_airport,Skukuza Airport,ZA,-24.960899353,31.5886993408,1020.0,1,5085.0,5085.0
FATZ,LTA,medium_airport,Tzaneen Airport,ZA,-23.8243999481,30.3292999268,1914.0,1,4659.0,4659.0
FAUL,ULD,medium_airport,Prince Mangosuthu Buthelezi Airport,ZA,-28.3206005096,31.4165000916,1720.0,2,5381.0,4388.0
FAUP,UTN,medium_airport,Pierre Van Ryneveld Airport,ZA,-28.39909935,21.2602005005,2782.0,2,16076.0,9406.0
FAUT,UTT,medium_airport,K. D. Matanzima Airport,ZA,-31.5463631849,28.6733551025,2400.0,2,6562.0,5741.5
FAVB,VRU,medium_airport,Vryburg Airport,ZA,-26.9824008942,24.7287998199,3920.0,1,3937.0,3937.0
FAVG,VIR,medium_airport,Virginia Airport,ZA,-29.77059936523437,31.058399200439453,20.0,1,3035.0,3035.0
FAVR,VRE,medium_airport,Vredendal Airport,ZA,-31.641000747680664,18.5447998046875,330.0,1,4265.0,4265.0
FAVV,,medium_airport,Vereeniging Airport,ZA,-26.566400528,27.9608001709,4846.0,2,5266.0,4495.0
FAWB,PRY,medium_airport,Wonderboom Airport,ZA,-25.6539,28.224199,4095.0,2,5998.0,5099.0
FAWK,WKF,medium_airport,Waterkloof Air Force Base,ZA,-25.8299999237,28.2224998474,4940.0,2,11001.0,8650.0
FAYP,,medium_airport,Ysterplaat Air Force Base,ZA,-33.90019989013672,18.498300552368164,52.0,1,5200.0,5200.0
FBFT,FRW,medium_airport,P G Matante Intl,BW,-21.15914,27.468545,3283.0,3,9843.0,7069.333333333333
FBJW,JWA,medium_airport,Jwaneng Airport,BW,-24.602301,24.691,3900.0,1,5495.0,5495.0
FBKE,BBK,medium_airport,Kasane Airport,BW,-17.832899,25.162399,3289.0,1,6562.0,6562.0
FBMN,MUB,medium_airport,Maun Airport,BW,-19.97260093688965,23.43110084533692,3093.0,1,6562.0,6562.0
FBSK,GBE,large_airport,Sir Seretse Khama International Airport,BW,-24.555201,25.9182,3299.0,1,13123.0,13123.0
FBSN,SXN,medium_airport,Sua Pan Airport,BW,-20.5534,26.115801,2985.0,1,5381.0,5381.0
FBSP,PKW,medium_airport,Selebi Phikwe Airport,BW,-22.0583,27.8288,2925.0,1,5840.0,5840.0
FCBB,BZV,medium_airport,Maya-Maya Airport,CG,-4.251699924468994,15.253000259399414,1048.0,1,10827.0,10827.0
FCOD,OLL,medium_airport,Oyo Ollombo Airport,CG,-1.226666,15.91,1073.0,1,10827.0,10827.0
FCOO,FTX,medium_airport,Owando Airport,CG,-0.5313500165939331,15.95009994506836,1214.0,1,5905.0,5905.0
FCOU,OUE,medium_airport,Ouesso Airport,CG,1.6159900426899998,16.0379009247,1158.0,1,6726.0,6726.0
FCPL,DIS,medium_airport,Ngot Nzoungou Airport,CG,-4.20635,12.6599,1079.0,1,6725.0,6725.0
FCPP,PNR,medium_airport,Antonio Agostinho-Neto International Airport,CG,-4.81603,11.8866,55.0,1,8530.0,8530.0
FDMS,MTS,medium_airport,Matsapha Airport,SZ,-26.528999,31.307501,2075.0,1,8530.0,8530.0
FDSK,SHO,large_airport,King Mswati III International Airport,SZ,-26.358611,31.716944,1092.0,1,11811.0,11811.0
FEFF,BGF,medium_airport,Bangui M'Poko International Airport,CF,4.39847993850708,18.51880073547364,1208.0,1,8530.0,8530.0
FEFT,BBT,medium_airport,Berbérati Airport,CF,4.221580028533936,15.786399841308594,1929.0,1,5446.0,5446.0
FGBT,BSG,medium_airport,Bata Airport,GQ,1.90547,9.80568,13.0,2,10860.0,8930.5
FGSL,SSG,medium_airport,Malabo Airport,GQ,3.755270004272461,8.708720207214355,76.0,1,9647.0,9647.0
FHAW,ASI,medium_airport,RAF Ascension Island,SH,-7.9696,-14.3937,278.0,1,10019.0,10019.0
FIMP,MRU,large_airport,Sir Seewoosagur Ramgoolam International Airport,MU,-20.430201,57.683601,186.0,1,11056.0,11056.0
FIMR,RRG,medium_airport,Sir Charles Gaetan Duval Airport,MU,-19.7577,63.361,95.0,1,4223.0,4223.0
FJDG,NKW,medium_airport,Diego Garcia Naval Support Facility,IO,-7.31327,72.411102,9.0,1,12003.0,12003.0
FKKC,TKC,medium_airport,Tiko Airport,CM,4.08919000626,9.3605298996,151.0,1,4512.0,4512.0
FKKD,DLA,medium_airport,Douala International Airport,CM,4.0060801506,9.71947956085,33.0,1,9350.0,9350.0
FKKL,MVR,medium_airport,Salak Airport,CM,10.45139980316162,14.257399559020996,1390.0,1,6890.0,6890.0
FKKM,FOM,medium_airport,Foumban Nkounja Airport,CM,5.636919975280762,10.750800132751465,3963.0,1,6889.0,6889.0
FKKN,NGE,medium_airport,N'Gaoundéré Airport,CM,7.357009887695312,13.559200286865234,3655.0,1,8858.0,8858.0
FKKR,GOU,medium_airport,Garoua International Airport,CM,9.33588981628418,13.370100021362305,794.0,1,11032.0,11032.0
FKKU,BFX,medium_airport,Bafoussam Airport,CM,5.536920070650001,10.3545999527,4347.0,1,8203.0,8203.0
FKKV,BPC,medium_airport,Bamenda Airport,CM,6.039239883422852,10.122599601745604,4065.0,1,8202.0,8202.0
FKKY,YAO,medium_airport,Yaoundé Airport,CM,3.8360400199890137,11.523500442504885,2464.0,1,6519.0,6519.0
FKYS,NSI,medium_airport,Yaoundé Nsimalen International Airport,CM,3.722559928894043,11.553299903869627,2278.0,1,11155.0,11155.0
FLKE,CGJ,medium_airport,Kasompe Airport,ZM,-12.572799682617,27.893899917603,4636.0,1,4698.0,4698.0
FLLC,,medium_airport,Lusaka City Airport,ZM,-15.4138002396,28.3306999207,4200.0,1,6594.0,6594.0
FLLI,LVI,medium_airport,Harry Mwanga Nkumbula International Airport,ZM,-17.8218,25.822701,3302.0,2,7520.0,6010.5
FLLS,LUN,large_airport,Kenneth Kaunda International Airport,ZM,-15.330833,28.452722,3779.0,2,12998.0,7849.0
FLMF,MFU,medium_airport,Mfuwe Airport,ZM,-13.258899688720703,31.936599731445312,1853.0,1,7218.0,7218.0
FLMG,MNR,medium_airport,Mongu Airport,ZM,-15.25450038909912,23.16230010986328,3488.0,1,4800.0,4800.0
FLND,NLA,medium_airport,Simon Mwansa Kapwepwe International Airport,ZM,-12.998512,28.664047,4167.0,2,8250.0,6125.0
FLSO,KIW,medium_airport,Southdowns Airport,ZM,-12.900500297546388,28.149900436401367,4145.0,1,6562.0,6562.0
FMCH,HAH,medium_airport,Prince Said Ibrahim International Airport,KM,-11.5337,43.2719,93.0,1,9514.0,9514.0
FMCI,NWA,medium_airport,Mohéli Bandar Es Eslam Airport,KM,-12.2981,43.766399,46.0,1,4265.0,4265.0
FMCV,AJN,medium_airport,Ouani Airport,KM,-12.131047,44.430044,62.0,1,4429.0,4429.0
FMCZ,DZA,medium_airport,Dzaoudzi Pamandzi International Airport,YT,-12.809319,45.281815,23.0,1,6330.0,6330.0
FMEE,RUN,large_airport,Roland Garros Airport,RE,-20.890087,55.518894,66.0,2,10499.0,9629.5
FMEP,ZSE,medium_airport,Pierrefonds Airport,RE,-21.319362,55.422506,59.0,1,7000.0,7000.0
